_id,pin,address,block_lot,sale_price,act77_gent_date,last_payment_date,treasury_sale_date,partition_latest_sale_date,latitude,longitude,neighborhood_name,council_district,ward,fire_zone,police_zone,dpw_streets,dpw_enviro,dpw_parks
426526,0124P00079000A00,"6411 MEADOW ST, PITTSBURGH, PA 15206",0124P00079A,11500,2002-02-22,2006-03-15,2013-04-26,1974-10-22,40.46317869901238,-79.91184588718296,Larimer,9,12,3-12,5,2,Eastern,Highland
426527,0005L00180000000,"930 SAW MILL RUN BLVD, PITTSBURGH, PA 00000",0005L00180,60000,1999-02-10,1999-02-10,,1990-06-26,40.42620034572472,-80.02150145531566,Duquesne Heights,2,20,4-1,3,5,Southern,Emerald
426528,0007N00239000000,"CORFU ST, PITTSBURGH, PA 15220",0007N00239,1,,,,1990-12-26,40.445160213825176,-80.03229970642188,Elliott,2,20,1-17,6,5,Northern,Emerald
426529,0011L00053000000,"2307 5TH AVE, PITTSBURGH, PA 15213",0011L00053,3923,1991-11-26,1991-11-26,,1990-12-17,40.43785613716536,-79.97254268581102,West Oakland,6,4,2-1,4,3,Central,Schenley
426530,0003H00163000000,"E CARSON ST, PITTSBURGH, PA 15203",0003H00163,47000,1992-02-29,1992-02-29,1995-04-24,1969-11-28,40.42910246808304,-79.98573311622152,South Side Flats,3,17,4-24,3,4,Southern,Schenley
426531,0046H00064000000,"GERSHON ST, PITTSBURGH, PA 15212",0046H00064,1461,,,,1969-06-02,40.46811280114103,-79.99985099171704,Spring Hill-City View,1,26,1-11,1,1,Northern,Riverview
426532,0115B00288000000,"3973 OAKDALE ST, PITTSBURGH, PA 15214",0115B00288,0,2002-03-19,2009-12-21,2017-04-28,2017-09-25,40.49038626328026,-80.02769258832414,Brighton Heights,1,26,1-15,1,1,Northern,Riverview
426533,0174F00223000000,"7237 RACE ST, PITTSBURGH, PA 15208",0174F00223,0,1994-04-13,2005-07-07,2013-04-26,2017-01-09,40.45865304543902,-79.89399061204169,Homewood North,9,13,3-17,5,2,Eastern,Highland
426534,0010C00021000000,"720 WATT LN, PITTSBURGH, PA 15219",0010C00021,10,2001-07-11,2008-02-05,2017-04-28,2017-04-28,40.45059124520599,-79.97203103833027,Bedford Dwellings,6,5,2-5,2,3,Central,Schenley
426535,0014E00147000000,"500 E WARRINGTON AVE, PITTSBURGH, PA 15210",0014E00147,0,2000-12-26,2004-03-15,2017-04-28,2017-04-28,40.421030742137,-79.99873411290977,Beltzhoover,3,18,4-21,3,4,Southern,Emerald
426536,0071L00349000000,"3562 MIDDLETOWN RD, PITTSBURGH, PA 15204",0071L00349,11900,2000-08-18,2007-07-27,2017-04-28,2017-04-28,40.457214028209805,-80.07293961770945,Chartiers City,2,20,1-16,6,5,Northern,Emerald
426537,0041R00068000000,"STEUBEN ST, PITTSBURGH, PA 15220",0041R00068,0,1998-12-01,1998-12-01,2017-04-28,2017-04-28,40.443322449819625,-80.05660356304688,Crafton Heights,2,28,1-17,6,5,Northern,Emerald
426538,0024J00364000000,"841 LOVITT WAY, PITTSBURGH, PA 15212",0024J00364,18000,1997-03-05,1997-03-05,2017-04-28,2017-04-28,40.45636959514726,-79.99588654897336,East Allegheny,1,23,1-5,1,1,Northern,Riverview
426539,0024J00302000B00,"BLOSSOM WAY, PITTSBURGH, PA 15212",0024J00302B,25861,2000-02-14,2000-02-14,2017-04-28,2017-04-28,40.45702202280923,-79.99683356233643,East Allegheny,1,23,1-5,1,1,Northern,Riverview
426540,0067P00097000000,"800 IDLEWOOD AVE, PITTSBURGH, PA 15106",0067P00097,38900,1994-02-28,1994-02-28,2017-04-28,2017-04-28,40.41544458879826,-80.07524423132627,East Carnegie,2,28,1-19,6,5,Northern,Emerald
426541,0054J00186000000,"342 SALINE ST, PITTSBURGH, PA 15207",0054J00186,1,2002-10-21,2006-06-29,2017-04-28,2017-04-28,40.42725143153937,-79.94674515094337,Greenfield,5,15,2-12,4,3,Eastern,Frick
426542,0174G00159000000,"7407 MONTICELLO ST, PITTSBURGH, PA 15208",0174G00159,0,1987-07-15,1987-07-15,2017-04-28,2017-04-28,40.458622673723625,-79.89061679685399,Homewood North,9,13,3-17,5,2,Eastern,Highland
426543,0125D00106000000,"7010 HERMITAGE ST, PITTSBURGH, PA 15208",0125D00106,10000,2002-02-27,2012-11-16,2017-04-28,2017-04-28,40.46100562229906,-79.89954991140782,Homewood North,9,13,3-18,5,2,Eastern,Highland
426544,0174R00107000A00,"621 DURANGO WAY, PITTSBURGH, PA 15208",0174R00107A,0,2000-01-27,2000-01-27,2017-04-28,2017-04-28,40.453513231864825,-79.88961446679701,Homewood South,9,13,3-17,5,2,Eastern,Frick
426545,0174R00222000000,"704 BRUSHTON AVE, PITTSBURGH, PA 15208",0174R00222,0,1989-09-21,2016-05-06,2017-04-28,2017-04-28,40.45385404663045,-79.88842534219769,Homewood South,9,13,3-17,5,2,Eastern,Frick
426546,0174R00107000100,"619 DURANGO WAY, PITTSBURGH, PA 15208",0174R001070001,5600,1999-02-02,1999-02-02,2017-04-28,2017-04-28,40.45345950154122,-79.8896378906294,Homewood South,9,13,3-17,5,2,Eastern,Frick
426547,0174R00322000000,"7723 KELLY ST, PITTSBURGH, PA 15208",0174R00322,0,1987-08-19,1987-08-19,2017-04-28,2017-04-28,40.45371335322935,-79.88777896152396,Homewood South,9,13,3-17,5,2,Eastern,Frick
426548,0174R00107000000,"DURANGO WAY, PITTSBURGH, PA 15208",0174R00107,1032,2002-02-25,2004-04-23,2017-04-28,2017-04-28,40.453565135439405,-79.88959482095032,Homewood South,9,13,3-17,5,2,Eastern,Frick
426549,0174R00108000000,"617 DURANGO WAY, PITTSBURGH, PA 15208",0174R00108,0,1976-02-06,1976-02-06,2017-04-28,2017-04-28,40.453409105606525,-79.88965704106818,Homewood South,9,13,3-17,5,2,Eastern,Frick
426550,0125D00130000000,"6943 KEDRON ST, PITTSBURGH, PA 15208",0125D00130,22000,2001-10-26,2004-08-31,2017-04-28,2017-04-28,40.46227208290341,-79.90037410487824,Homewood West,9,12,3-18,5,2,Eastern,Highland
426551,0124S00185000100,"LAXTON ST, PITTSBURGH, PA 15206",0124S001850001,1,1990-07-24,1990-07-24,2017-04-28,2017-04-28,40.463041376874536,-79.90179991631962,Homewood West,9,12,3-18,5,2,Eastern,Highland
426552,0125A00186000000,"211 MAYFLOWER ST, PITTSBURGH, PA 15206",0125A00186,12500,2002-02-21,2013-05-24,2017-04-28,2017-04-28,40.46219544174815,-79.91325197049282,Larimer,9,12,3-12,5,2,Eastern,Highland
426553,0125C00084000000,"618 LINCOLN AVE, PITTSBURGH, PA 15206",0125C00084,0,1996-07-19,1996-07-19,2017-04-28,2017-04-28,40.46162875813155,-79.90713263455886,Larimer,9,12,3-12,5,2,Eastern,Highland
426554,0125C00072000000,"630 LINCOLN AVE, PITTSBURGH, PA 15206",0125C00072,1800,1998-01-31,1998-01-31,2017-04-28,2017-04-28,40.46187028243284,-79.90659866359363,Larimer,9,12,3-12,5,2,Eastern,Highland
426555,0125C00077000000,"624 LINCOLN AVE, PITTSBURGH, PA 15206",0125C00077,4000,,2004-11-04,2017-04-28,2017-04-28,40.461744863416456,-79.90681591902128,Larimer,9,12,3-12,5,2,Eastern,Highland
426556,0125C00083000000,"620 LINCOLN AVE, PITTSBURGH, PA 15206",0125C00083,1,1999-07-28,1999-07-28,2017-04-28,2017-04-28,40.46164618896441,-79.90704795574518,Larimer,9,12,3-12,5,2,Eastern,Highland
426557,0125C00080000000,"622 LINCOLN AVE, PITTSBURGH, PA 15206",0125C00080,0,1999-02-05,2017-02-16,2017-04-28,2017-04-28,40.46168838370805,-79.90694087863965,Larimer,9,12,3-12,5,2,Eastern,Highland
426558,0125B00319000000,"FINLEY ST, PITTSBURGH, PA 15206",0125B00319,9683,2002-03-08,2005-01-21,2017-04-28,2017-04-28,40.46101806800467,-79.90781139374559,Larimer,9,12,3-12,5,2,Eastern,Highland
426559,0125B00272000000,"516 LINCOLN AVE, PITTSBURGH, PA 15206",0125B00272,4000,1997-03-12,2025-02-04,2017-04-28,2017-04-28,40.461037943245245,-79.90894931677366,Larimer,9,12,3-12,5,2,Eastern,Highland
426560,0125B00343000000,"135 FINLEY ST, PITTSBURGH, PA 15206",0125B00343,1,2002-05-09,2016-08-05,2017-04-28,2017-04-28,40.46025461673253,-79.9095271015032,Larimer,9,12,3-12,5,2,Eastern,Highland
426561,0125C00069000000,"632 LINCOLN AVE, PITTSBURGH, PA 15206",0125C00069,6723,2018-01-03,2015-06-17,2017-04-28,2017-04-28,40.46197202591485,-79.90642068244931,Larimer,9,12,3-12,5,2,Eastern,Highland
426562,0125C00116000000,"6633 SHETLAND AVE, PITTSBURGH, PA 15206",0125C00116,1,2002-07-23,2011-02-03,2017-04-28,2017-04-28,40.460711125533685,-79.90724239792841,Larimer,9,12,3-12,5,2,Eastern,Highland
426563,0124S00060000000,"1005 LINCOLN AVE, PITTSBURGH, PA 15206",0124S00060,2000,1993-07-01,1993-07-01,2017-04-28,2017-04-28,40.464070676461176,-79.9019470615239,Lincoln-Lemington-Belmar,9,12,3-15,5,2,Eastern,Highland
426564,0173J00167000000,"1242 LINCOLN AVE, PITTSBURGH, PA 15206",0173J00167,28000,1995-07-05,1995-07-05,2017-04-28,2017-04-28,40.46571860118095,-79.89758363441736,Lincoln-Lemington-Belmar,9,12,3-18,5,2,Eastern,Highland
426565,0124S00059000000,"1007 LINCOLN AVE, PITTSBURGH, PA 15206",0124S00059,0,1989-09-12,1989-09-12,2017-04-28,2017-04-28,40.46412237036191,-79.90185664037979,Lincoln-Lemington-Belmar,9,12,3-15,5,2,Eastern,Highland
426566,0173L00017000000,"7305 LEMINGTON AVE, PITTSBURGH, PA 15235",0173L00017,1,2001-05-31,2001-05-31,2017-04-28,2017-04-28,40.46719952596841,-79.8896447353856,Lincoln-Lemington-Belmar,9,12,3-18,5,2,Eastern,Highland
426567,0173J00177000000,"1246 LINCOLN AVE, PITTSBURGH, PA 15206",0173J00177,0,1996-10-10,1996-10-10,2017-04-28,2017-04-28,40.465946992551565,-79.89741535129289,Lincoln-Lemington-Belmar,9,12,3-18,5,2,Eastern,Highland
426568,0173J00164000000,"1238 LINCOLN AVE, PITTSBURGH, PA 15206",0173J00164,13400,2002-05-31,2006-04-17,2017-04-28,2017-04-28,40.465613311280926,-79.8976325372891,Lincoln-Lemington-Belmar,9,12,3-18,5,2,Eastern,Highland
426569,0124S00062000000,"1001 LINCOLN AVE, PITTSBURGH, PA 15206",0124S00062,2000,1989-09-12,1989-09-12,2017-04-28,2017-04-28,40.46402079544824,-79.90203999500406,Lincoln-Lemington-Belmar,9,12,3-15,5,2,Eastern,Highland
426570,0173J00180000000,"LINCOLN AVE, PITTSBURGH, PA 15206",0173J00180,0,1996-10-10,1996-10-10,2017-04-28,2017-04-28,40.466050350819,-79.89738411181537,Lincoln-Lemington-Belmar,9,12,3-18,5,2,Eastern,Highland
426571,0173J00163000000,"1236 LINCOLN AVE, PITTSBURGH, PA 15206",0173J00163,1,1993-03-05,1993-03-05,2017-04-28,2017-04-28,40.46552180123313,-79.89761561997113,Lincoln-Lemington-Belmar,9,12,3-18,5,2,Eastern,Highland
426572,0044D00065000000,"1608 ECKERT ST, PITTSBURGH, PA 15212",0044D00065,27000,2002-02-25,2011-02-01,2017-04-28,2017-04-28,40.471997926365766,-80.03583614100512,Marshall-Shadeland,1,27,1-14,1,1,Northern,Riverview
426573,0090R00228000000,"NICEVILLE ST, PITTSBURGH, PA 15120",0090R00228,0,,,2017-04-28,2017-04-28,40.39599603557743,-79.92051657915688,New Homestead,5,31,4-20,4,3,Eastern,Frick
426574,0046K00129000000,"2314 PERRYSVILLE AVE, PITTSBURGH, PA 15214",0046K00129,8750,2002-11-05,2006-12-14,2017-04-28,2017-04-28,40.466553103197406,-80.01061753628093,Perry South,6,26,1-12,1,1,Northern,Riverview
426575,0046N00359000000,"540 MCCLINTOCK AVE, PITTSBURGH, PA 15214",0046N00359,3897,1994-01-26,1994-01-26,2017-04-28,2017-04-28,40.4626171291946,-80.01519897232055,Perry South,6,25,1-10,1,1,Northern,Riverview
426576,0029C00050000000,"3512 FRAZIER ST, PITTSBURGH, PA 15213",0029C00050,8000,2002-03-07,2011-08-12,2017-04-28,2017-04-28,40.4311368913209,-79.95646770727376,South Oakland,3,4,2-11,4,3,Central,Schenley
426577,0024C00306000000,"1223 SPRING GARDEN AVE, PITTSBURGH, PA 15212",0024C00306,1,2002-03-05,2004-06-11,2017-04-28,2017-04-28,40.460096241756766,-79.99079750284483,Spring Garden,1,24,1-5,1,1,Northern,Riverview
426578,0024F00306000000,"1125 VOSKAMP ST, PITTSBURGH, PA 15212",0024F00306,1,2000-07-27,2010-10-04,2017-04-28,2017-04-28,40.45882714747624,-79.99258459739833,Spring Garden,1,24,1-5,1,1,Northern,Riverview
426579,0024C00162000000,"1214 SPRING GARDEN AVE, PITTSBURGH, PA 15212",0024C00162,16500,2000-02-04,2008-08-12,2017-04-28,2017-04-28,40.460374080014766,-79.99101157919861,Spring Garden,1,24,1-5,1,1,Northern,Riverview
426580,0024C00309000000,"1215 SPRING GARDEN AVE, PITTSBURGH, PA 15212",0024C00309,10000,1999-08-17,1999-08-17,2017-04-28,2017-04-28,40.460119996603915,-79.99104157808654,Spring Garden,1,24,1-5,1,1,Northern,Riverview
426581,0046H00019000000,"2313 BESSIE AVE, PITTSBURGH, PA 15212",0046H00019,8500,1998-08-07,2008-11-20,2017-04-28,2017-04-28,40.46872612178281,-79.99948939504017,Spring Hill-City View,1,26,1-11,1,1,Northern,Riverview
426582,0003R00327000000,"934 EUREKA ST, PITTSBURGH, PA 15210",0003R00327,19000,2002-08-02,2011-03-25,2017-06-16,2017-06-16,40.423665449742536,-79.99038446697918,Allentown,3,18,4-5,3,4,Southern,Emerald
426583,0014C00042000000,"ARLINGTON AVE, PITTSBURGH, PA 15210",0014C00042,0,2002-03-04,2003-02-20,2017-06-16,2017-06-16,40.423386853515,-79.99011288650023,Allentown,3,18,4-5,3,4,Southern,Emerald
426584,0014C00020000000,"EXCELSIOR ST, PITTSBURGH, PA 15210",0014C00020,5000,,2011-01-19,2017-06-16,2017-06-16,40.423188111339215,-79.99077455574947,Allentown,3,18,4-5,3,4,Southern,Emerald
426585,0014C00041000000,"944 EXCELSIOR ST, PITTSBURGH, PA 15210",0014C00041,0,1998-07-29,2005-12-12,2017-06-16,2017-06-16,40.42335916429538,-79.99018076130318,Allentown,3,18,4-5,3,4,Southern,Emerald
426586,0015H00269000000,"244 INDUSTRY ST, PITTSBURGH, PA 15210",0015H00269,8000,1997-12-04,2017-02-08,2017-06-16,2017-06-16,40.42033777228798,-80.00296297862785,Beltzhoover,3,18,4-16,3,4,Southern,Emerald
426587,0015L00110000000,"62 SYLVANIA AVE, PITTSBURGH, PA 15210",0015L00110,4000,1996-09-16,2015-06-10,2017-06-16,2017-06-16,40.41661021799796,-80.00724655483937,Beltzhoover,3,18,4-16,3,4,Southern,Emerald
426588,0015S00203000000,"801 ELDORA PL, PITTSBURGH, PA 15210",0015S00203,1,2002-09-18,2006-03-01,2017-06-16,2017-06-16,40.415804558742416,-80.0010584351039,Beltzhoover,3,18,4-16,3,4,Southern,Emerald
426589,0015L00114000000,"70 SYLVANIA AVE, PITTSBURGH, PA 15210",0015L00114,2000,1996-09-16,2015-06-10,2017-06-16,2017-06-16,40.41671503731297,-80.00691731628415,Beltzhoover,3,18,4-16,3,4,Southern,Emerald
426590,0015H00261000000,"226 INDUSTRY ST, PITTSBURGH, PA 15210",0015H00261,1,2001-02-13,2016-09-16,2017-06-16,2017-06-16,40.42018449855345,-80.00357952129129,Beltzhoover,3,18,4-16,3,4,Southern,Emerald
426591,0015L00109000000,"615 TAFT AVE, PITTSBURGH, PA 15210",0015L00109,0,2002-09-27,2016-06-17,2017-06-16,2017-06-16,40.41643539482239,-80.00683522633777,Beltzhoover,3,18,4-16,3,4,Southern,Emerald
426592,0015P00012000000,"32 SYLVANIA AVE, PITTSBURGH, PA 15210",0015P00012,1,2002-07-25,2010-02-22,2017-06-16,2017-06-16,40.41601059572321,-80.00841962179312,Beltzhoover,3,18,4-16,3,4,Southern,Emerald
426593,0015G00048000000,"32 NINA WAY, PITTSBURGH, PA 15210",0015G00048,200,1992-09-11,2016-03-16,2017-06-16,2017-06-16,40.4202230043982,-80.00561202491974,Beltzhoover,3,18,4-16,3,4,Southern,Emerald
426594,0015G00219000000,"111 CLIMAX ST, PITTSBURGH, PA 15210",0015G00219,9000,1994-02-10,2015-06-10,2017-06-16,2017-06-16,40.4193590481962,-80.00546231927521,Beltzhoover,3,18,4-16,3,4,Southern,Emerald
426595,0015P00055000000,"11 FRAMPTON ST, PITTSBURGH, PA 15210",0015P00055,650,1981-02-28,2016-06-17,2017-06-16,2017-06-16,40.415600604518445,-80.00783634758957,Beltzhoover,3,18,4-16,3,4,Southern,Emerald
426596,0015M00234000000,"301 CHALFONT ST, PITTSBURGH, PA 15210",0015M00234,1,2002-04-01,2011-12-31,2017-06-16,2017-06-16,40.416836890679896,-80.00221079199251,Beltzhoover,3,18,4-16,3,4,Southern,Emerald
426597,0011K00192000000,"FORBES AVE, PITTSBURGH, PA 15219",0011K00192,4000,1985-09-13,1985-09-13,2017-06-16,2017-06-16,40.437070366470415,-79.97519754292344,Bluff,6,4,2-1,2,3,Central,Schenley
426598,0011K00028000000,"2022 5TH AVE, PITTSBURGH, PA 15219",0011K00028,2500,2002-09-19,2011-11-01,2017-06-16,2017-06-16,40.43794998379455,-79.97668797134762,Bluff,6,1,2-1,2,3,Central,Schenley
426599,0011K00271000300,"2013 BLVD OF THE ALLIES, PITTSBURGH, PA 15219",0011K002710003,22000,1996-07-19,1996-07-19,2017-06-16,2017-06-16,40.43644528571675,-79.97739882863297,Bluff,6,1,2-1,2,3,Central,Schenley
426600,0011K00045000000,"2112 5TH AVE, PITTSBURGH, PA 15219",0011K00045,0,1997-07-03,2017-02-15,2017-06-16,2017-06-16,40.43787172432913,-79.975392213233,Bluff,6,4,2-1,2,3,Central,Schenley
426601,0011K00271001000,"2005 BLVD OF THE ALLIES, PITTSBURGH, PA 15219",0011K002710010,5750,1993-12-08,1993-12-08,2017-06-16,2017-06-16,40.43637177949166,-79.97759131703143,Bluff,6,1,2-1,2,3,Central,Schenley
426602,0011K00191000000,"2114 FORBES AVE, PITTSBURGH, PA 15213",0011K00191,36000,1993-08-26,1993-08-26,2017-06-16,2017-06-16,40.437074266556,-79.97526789830722,Bluff,6,4,2-1,2,3,Central,Schenley
426603,0022G00197000A00,"951 LYSLE ST, PITTSBURGH, PA 15212",0022G00197A,24343,,,2017-06-16,2017-06-16,40.45924521865469,-80.02090964152086,California-Kirkbride,6,25,1-9,1,1,Northern,Riverview
426604,0022H00194000000,"1716 BRIGHTON PL, PITTSBURGH, PA 15212",0022H00194,41600,1992-02-29,1992-02-29,2017-06-16,2017-06-16,40.45877221578469,-80.01712596399635,California-Kirkbride,6,25,1-21,1,1,Northern,Riverview
426605,0022G00200000000,"952 CALIFORNIA AVE, PITTSBURGH, PA 15212",0022G00200,24343,,,2017-06-16,2017-06-16,40.45907257956364,-80.02101933711947,California-Kirkbride,6,25,1-9,1,1,Northern,Riverview
426606,0022H00207000000,"1610 BRIGHTON RD, PITTSBURGH, PA 15212",0022H00207,24343,,,2017-06-16,2017-06-16,40.45814885741959,-80.01698326703912,California-Kirkbride,6,25,1-21,1,1,Northern,Riverview
426607,0022G00195000000,"948 CALIFORNIA AVE, PITTSBURGH, PA 15212",0022G00195,24343,,,2017-06-16,2017-06-16,40.459097099016006,-80.02087731220969,California-Kirkbride,6,25,1-9,1,1,Northern,Riverview
426608,0007G00182000000,"FONTELLA ST, PITTSBURGH, PA 15233",0007G00182,0,1979-02-08,1979-02-08,2017-06-16,2017-06-16,40.44862225082518,-80.02135691619851,Chateau,6,21,1-8,1,6,Northern,Riverview
426609,0007F00260000000,"REEDSDALE ST, PITTSBURGH, PA 15233",0007F00260,0,1986-06-25,1986-06-25,2017-06-16,2017-06-16,40.448803780043285,-80.02482933538055,Chateau,6,21,1-8,1,1,Northern,Riverview
426610,0050L00147000000,"5301 BROAD ST, PITTSBURGH, PA 15224",0050L00147,6020,2002-07-26,2002-07-26,2017-06-16,2017-06-16,40.466068291039846,-79.93807734105259,Garfield,9,10,3-4,5,2,Central,Highland
426611,0050M00302000000,"5472 BROAD ST, PITTSBURGH, PA 15206",0050M00302,0,1996-04-15,2010-12-06,2017-06-16,2017-06-16,40.46509984407216,-79.93311758271088,Garfield,9,11,3-4,5,2,Central,Highland
426612,0050M00164000000,"216 N AIKEN AVE, PITTSBURGH, PA 15206",0050M00164,0,1993-01-28,1993-01-28,2017-06-16,2017-06-16,40.465999796580505,-79.93535895310247,Garfield,9,11,3-4,5,2,Central,Highland
426613,0050L00099000000,"5204 KINCAID ST, PITTSBURGH, PA 15224",0050L00099,0,1990-05-15,1990-05-15,2017-06-16,2017-06-16,40.46658169607016,-79.93927174927721,Garfield,9,10,3-4,5,2,Central,Highland
426614,0050M00243000000,"238 N GRAHAM ST, PITTSBURGH, PA 15206",0050M00243,0,2001-07-19,2005-04-12,2017-06-16,2017-06-16,40.46663774151817,-79.93388993819545,Garfield,9,11,3-4,5,2,Central,Highland
426615,0083J00052000000,"5464 ROSETTA ST, PITTSBURGH, PA 15206",0083J00052,17550,1999-01-29,2017-01-24,2017-06-16,2017-06-16,40.46637083918512,-79.93247728339105,Garfield,9,11,3-4,5,2,Central,Highland
426616,0050M00161000000,"5406 KINCAID ST, PITTSBURGH, PA 15206",0050M00161,0,1994-06-02,1994-06-02,2017-06-16,2017-06-16,40.466091323932254,-79.9351823799182,Garfield,9,11,3-4,5,2,Central,Highland
426617,0050K00104000000,"5014 JORDAN WAY, PITTSBURGH, PA 15224",0050K00104,4500,2001-04-04,2003-11-07,2017-06-16,2017-06-16,40.46676106225244,-79.9430314650632,Garfield,9,10,3-4,5,2,Central,Highland
426618,0083J00054000000,"5468 ROSETTA ST, PITTSBURGH, PA 15206",0083J00054,26000,2001-03-12,2016-02-03,2017-06-16,2017-06-16,40.466350284689725,-79.93233370872814,Garfield,9,11,3-4,5,2,Central,Highland
426619,0050L00145000000,"5305 BROAD ST, PITTSBURGH, PA 15224",0050L00145,0,2001-11-02,2001-11-02,2017-06-16,2017-06-16,40.46604789291807,-79.93793121032763,Garfield,9,10,3-4,5,2,Central,Highland
426620,0050M00161000A00,"5404 KINCAID ST, PITTSBURGH, PA 15206",0050M00161A,0,1996-07-22,1996-07-22,2017-06-16,2017-06-16,40.46609742033329,-79.93524659762511,Garfield,9,11,3-4,5,2,Central,Highland
426621,0050L00167000000,"5177 JORDAN WAY, PITTSBURGH, PA 15224",0050L00167,0,2002-03-07,2016-05-24,2017-06-16,2017-06-16,40.466384459367085,-79.93980670422648,Garfield,9,10,3-4,5,2,Central,Highland
426622,0056N00116000000,"5115 BLAIR ST, PITTSBURGH, PA 15207",0056N00116,19000,2002-02-26,2007-01-24,2017-06-16,2017-06-16,40.406077506105525,-79.94610521674731,Hazelwood,5,15,2-13,4,3,Eastern,Frick
426623,0056P00175000000,"5230 2ND AVE, PITTSBURGH, PA 15207",0056P00175,6750,2002-09-25,2002-09-25,2017-06-16,2017-06-16,40.40511152370757,-79.94299296276684,Hazelwood,5,15,2-13,4,3,Eastern,Frick
426624,0056N00099000B00," COURTLAND ST, PITTSBURGH, PA 15207",0056N00099B,10,1999-03-31,2009-05-29,2017-06-16,2017-06-16,40.40493775626712,-79.94557573334451,Hazelwood,5,15,2-13,4,3,Eastern,Frick
426625,0056N00096000000,"202 COURTLAND ST, PITTSBURGH, PA 15207",0056N00096,1,2002-04-26,2008-06-13,2017-06-16,2017-06-16,40.404892881981766,-79.9459483635451,Hazelwood,5,15,2-13,4,3,Eastern,Frick
426626,0056P00140000000,"5241 DYKE ST, PITTSBURGH, PA 15207",0056P00140,13600,2001-10-31,2012-09-14,2017-06-16,2017-06-16,40.404720477040215,-79.94326496772456,Hazelwood,5,15,2-13,4,3,Eastern,Frick
426627,0056N00112000000,"5123 BLAIR ST, PITTSBURGH, PA 15207",0056N00112,5000,2002-03-21,2014-02-14,2017-06-16,2017-06-16,40.405870424071765,-79.94606138065305,Hazelwood,5,15,2-13,4,3,Eastern,Frick
426628,0056P00013000A00,"5204 LYTLE ST, PITTSBURGH, PA 15207",0056P00013A,20000,1999-01-26,1999-01-26,2017-06-16,2017-06-16,40.404918111875936,-79.94524685743977,Hazelwood,5,15,2-13,4,3,Eastern,Frick
426629,0014N00223000000,"410 ROCHELLE ST, PITTSBURGH, PA 15210",0014N00223,0,2002-07-26,2012-03-23,2017-06-16,2017-06-16,40.4147598148056,-79.99574426427971,Knoxville,3,30,4-21,3,4,Southern,Emerald
426630,0124N00265000000,"422 PAULSON AVE, PITTSBURGH, PA 15206",0124N00265,10,2002-02-19,2008-01-31,2017-06-16,2017-06-16,40.46315064892171,-79.91227270630301,Larimer,9,12,3-12,5,2,Eastern,Highland
426631,0124N00166000000,"CARVER ST, PITTSBURGH, PA 15206",0124N00166,3678,2002-02-22,2016-02-17,2017-06-16,2017-06-16,40.46292313997712,-79.9135046573326,Larimer,9,12,3-10,5,2,Eastern,Highland
426632,0124P00231000000,"609 LOWELL ST, PITTSBURGH, PA 15206",0124P00231,1000,,2014-10-14,2017-06-16,2017-06-16,40.46377747540237,-79.90898069003018,Larimer,9,12,3-12,5,2,Eastern,Highland
426633,0124K00200000000,"630 THOMPSON ST, PITTSBURGH, PA 15206",0124K00200,0,2002-07-29,2014-01-03,2017-06-16,2017-06-16,40.46575496195007,-79.90993728524785,Larimer,9,12,3-12,5,2,Eastern,Highland
426634,0124P00108000000,"WINFIELD ST, PITTSBURGH, PA 15206",0124P00108,5038,2002-02-15,2011-04-26,2017-06-16,2017-06-16,40.46339424959804,-79.91105390928288,Larimer,9,12,3-12,5,2,Eastern,Highland
426635,0007B00180000000,"PAGE ST, PITTSBURGH, PA 15233",0007B00180,4000,1983-04-29,1983-04-29,2017-06-16,2017-06-16,40.450816792970926,-80.02665677162722,Manchester,6,21,1-8,1,1,Northern,Riverview
426636,0022L00178000000,"DECATUR ST, PITTSBURGH, PA 15233",0022L00178,1,1991-01-30,1991-01-30,2017-06-16,2017-06-16,40.4565613385755,-80.02133993447745,Manchester,6,21,1-8,1,1,Northern,Riverview
426637,0022L00204000000,"DECATUR ST, PITTSBURGH, PA 15233",0022L00204,150,1989-04-05,1989-04-05,2017-06-16,2017-06-16,40.456275002203526,-80.02105110104014,Manchester,6,21,1-8,1,1,Northern,Riverview
426638,0022F00073000000,"1328 ADAMS ST, PITTSBURGH, PA 15233",0022F00073,0,1995-12-15,2010-09-20,2017-06-16,2017-06-16,40.45884990982552,-80.02740328278446,Manchester,6,21,1-8,1,1,Northern,Riverview
426639,0022F00077000000,"1337 BELDALE ST, PITTSBURGH, PA 15233",0022F00077,0,1990-10-17,1990-10-17,2017-06-16,2017-06-16,40.45900558382974,-80.02756249794258,Manchester,6,21,1-8,1,1,Northern,Riverview
426640,0022L00180000000,"1018 DECATUR ST, PITTSBURGH, PA 15233",0022L00180,1,1990-03-23,1990-03-23,2017-06-16,2017-06-16,40.45657977055043,-80.02125004025446,Manchester,6,21,1-8,1,1,Northern,Riverview
426641,0007B00276000000,"MANHATTAN ST, PITTSBURGH, PA 15233",0007B00276,3000,2001-12-27,2001-12-27,2017-06-16,2017-06-16,40.451996492309405,-80.02582367239388,Manchester,6,21,1-8,1,1,Northern,Riverview
426642,0022F00076000000,"1339 BELDALE ST, PITTSBURGH, PA 15233",0022F00076,400,2002-03-15,2002-03-15,2017-06-16,2017-06-16,40.45900091649002,-80.02765193670099,Manchester,6,21,1-8,1,1,Northern,Riverview
426643,0007B00223000000,"1418 PAGE ST, PITTSBURGH, PA 15233",0007B00223,0,2001-03-15,2001-03-15,2017-06-16,2017-06-16,40.45133702909622,-80.02620146142094,Manchester,6,21,1-8,1,1,Northern,Riverview
426644,0022F00066000000,"1326 ADAMS ST, PITTSBURGH, PA 15233",0022F00066,4800,2000-10-23,2017-02-15,2017-06-16,2017-06-16,40.45886355957324,-80.02733242726755,Manchester,6,21,1-8,1,1,Northern,Riverview
426645,0022F00104000000,"1412 ADAMS ST, PITTSBURGH, PA 15233",0022F00104,1500,2000-02-04,2000-02-04,2017-06-16,2017-06-16,40.45866714516392,-80.02842567158038,Manchester,6,21,1-8,1,1,Northern,Riverview
426646,0022F00072000000,"1335 BELDALE ST, PITTSBURGH, PA 15233",0022F00072,0,1990-10-17,1990-10-17,2017-06-16,2017-06-16,40.459020443489294,-80.02746466528022,Manchester,6,21,1-8,1,1,Northern,Riverview
426647,0022L00207000000,"1020 LIVERPOOL ST, PITTSBURGH, PA 15233",0022L00207,5000,2000-10-05,2000-10-05,2017-06-16,2017-06-16,40.45624233806514,-80.02123253375339,Manchester,6,21,1-8,1,1,Northern,Riverview
426648,0022F00038000000,"BELDALE ST, PITTSBURGH, PA 15233",0022F00038,0,1985-01-02,1985-01-02,2017-06-16,2017-06-16,40.459245270715726,-80.02770869976018,Manchester,6,21,1-8,1,1,Northern,Riverview
426649,0007B00225000000,"PAGE ST, PITTSBURGH, PA 15233",0007B00225,1,2002-04-15,2012-03-06,2017-06-16,2017-06-16,40.45134955651295,-80.02613363466325,Manchester,6,21,1-8,1,1,Northern,Riverview
426650,0022F00100000000,"ADAMS ST, PITTSBURGH, PA 15233",0022F00100,350,1997-10-14,1997-10-14,2017-06-16,2017-06-16,40.45869330641585,-80.02828671225474,Manchester,6,21,1-8,1,1,Northern,Riverview
426651,0022F00056000000,"1302 ADAMS ST, PITTSBURGH, PA 15233",0022F00056,1,1994-02-09,1994-02-09,2017-06-16,2017-06-16,40.45909284963206,-80.02651502300577,Manchester,6,21,1-8,1,1,Northern,Riverview
426652,0022D00166000000,"1917 N CHARLES ST, PITTSBURGH, PA 15212",0022D00166,400,2001-06-01,2014-05-16,2017-06-16,2017-06-16,40.460798325733705,-80.01763316572593,Perry South,6,25,1-9,1,1,Northern,Riverview
426653,0046B00107000000,"2517 PERRYSVILLE, PITTSBURGH, PA 15214",0046B00107,0,2002-03-06,2009-02-06,2017-06-16,2017-06-16,40.47021011990445,-80.00871778361758,Perry South,6,26,1-23,1,1,Northern,Riverview
426654,0026N00036000000,"3347 MILWAUKEE ST, PITTSBURGH, PA 15219",0026N00036,0,2002-05-07,2005-02-14,2017-06-16,2017-06-16,40.45363101994566,-79.96276704574211,Upper Hill,6,5,2-22,2,3,Central,Schenley
426655,0026N00163000000,"3330 MCNEIL PL, PITTSBURGH, PA 15219",0026N00163,38546,2000-03-13,2007-02-06,2017-06-16,2017-06-16,40.453948500060754,-79.96431939912469,Upper Hill,6,5,2-22,2,3,Central,Schenley
426656,0026N00019000000,"3352 MILWAUKEE ST, PITTSBURGH, PA 15219",0026N00019,0,,2015-06-19,2017-06-16,2017-06-16,40.45350120291621,-79.9622519431013,Upper Hill,6,5,2-22,2,3,Central,Schenley
426657,0011F00173000000,"2037 DE RUAD ST, PITTSBURGH, PA 15219",0011F00173,2500,2002-04-22,2006-10-13,2017-06-16,2017-06-16,40.43864138175664,-79.97515245633532,West Oakland,6,4,2-1,4,3,Central,Schenley
426658,0011G00043000000,"126 MOULTRIE ST, PITTSBURGH, PA 15219",0011G00043,1000,,,2017-06-16,2017-06-16,40.43881009155732,-79.9738729385387,West Oakland,6,4,2-1,4,3,Central,Schenley
426659,0045M00347000000,"CHESTER AVE, PITTSBURGH, PA 15214",0045M00347,8302,2002-04-04,2005-12-12,2017-09-01,2017-09-01,,,,,,,,,,
426660,0013K00100000000,"2104 ARLINGTON AVE, PITTSBURGH, PA 15210",0013K00100,0,1997-04-21,2010-05-21,2017-09-01,2017-09-01,40.41757245315456,-79.97714059791089,Arlington,3,16,4-22,3,4,Southern,Schenley
426661,0035K00166000000,"COAST AVE, PITTSBURGH, PA 15216",0035K00166,0,2001-10-29,2001-10-29,2017-09-01,2017-09-01,40.40842184019014,-80.02570844560985,Beechview,4,19,4-28,6,5,Southern,Emerald
426662,0016P00263000000,"1408 BEECHVIEW AVE, PITTSBURGH, PA 15216",0016P00263,26000,2002-04-03,2017-02-14,2017-09-01,2017-09-01,40.4139091876244,-80.02518608220515,Beechview,4,19,4-28,6,5,Southern,Emerald
426663,0015S00141000000,"814 ESTELLA AVE, PITTSBURGH, PA 15210",0015S00141,1,2002-07-29,2008-09-24,2017-09-01,2017-09-01,40.415340397759365,-80.00061737874285,Beltzhoover,3,18,4-21,3,4,Southern,Emerald
426664,0014N00099000000,"425 MICHIGAN ST, PITTSBURGH, PA 15210",0014N00099,7000,2002-02-18,2011-11-28,2017-09-01,2017-09-01,40.41612917996794,-79.99934278560751,Beltzhoover,3,18,4-21,3,4,Southern,Emerald
426665,0014N00039000000,"443 ALTHEA ST, PITTSBURGH, PA 15210",0014N00039,1,2002-11-29,2004-05-03,2017-09-01,2017-09-01,40.41452622504804,-79.99867673300598,Beltzhoover,3,18,4-21,3,4,Southern,Emerald
426666,0015M00290000000,"324 CHALFONT ST, PITTSBURGH, PA 15210",0015M00290,6000,1993-10-19,1993-10-19,2017-09-01,2017-09-01,40.41643493423766,-80.00126596985484,Beltzhoover,3,18,4-16,3,4,Southern,Emerald
426667,0015M00162000000,"423 SYLVANIA AVE, PITTSBURGH, PA 15210",0015M00162,1,2001-03-12,2014-07-18,2017-09-01,2017-09-01,40.41768280198229,-79.99949494674787,Beltzhoover,3,18,4-21,3,4,Southern,Emerald
426668,0011K00078000200,"3 SENECA ST, PITTSBURGH, PA 15219",0011K000780002,5000,2007-07-05,2011-12-29,2017-10-27,2017-09-01,40.437528201696395,-79.97570567007686,Bluff,6,4,2-1,2,3,Central,Schenley
426669,0041D00019000000,"CHARTIERS AVE, PITTSBURGH, PA 15204",0041D00019,39000,2002-02-13,2011-02-01,2017-09-01,2017-09-01,40.45212453144152,-80.05324447876501,Crafton Heights,2,20,1-16,6,5,Northern,Emerald
426670,0041D00021000000,"1704 FUSION ST, PITTSBURGH, PA 15204",0041D00021,39000,2002-04-29,2011-02-01,2017-09-01,2017-09-01,40.45203318447864,-80.05302153185576,Crafton Heights,2,20,1-16,6,5,Northern,Emerald
426671,0024F00009000000,"1012 ITIN ST, PITTSBURGH, PA 15212",0024F00009,0,,,2017-09-01,2017-09-01,40.45987377562908,-79.99480684957673,East Allegheny,1,24,1-5,1,1,Northern,Riverview
426672,0024E00281000000,"834 VISTA ST, PITTSBURGH, PA 15212",0024E00281,0,2002-06-13,2011-11-03,2017-09-01,2017-09-01,40.458743705334655,-79.99718019961628,East Allegheny,1,23,1-5,1,1,Northern,Riverview
426673,0024E00124000A00,"850 SPRING GARDEN AVE, PITTSBURGH, PA 15212",0024E00124A,1,2002-12-13,2006-01-27,2017-09-01,2017-09-01,40.457743149760326,-79.99600877143365,East Allegheny,1,23,1-5,1,1,Northern,Riverview
426674,0024F00016000000,"946 ITIN ST, PITTSBURGH, PA 15212",0024F00016,5522,2002-03-01,2005-08-15,2017-09-01,2017-09-01,40.45945340934055,-79.99498494106801,East Allegheny,1,23,1-5,1,1,Northern,Riverview
426675,0083A00069000000,"5439 BLACK ST, PITTSBURGH, PA 15206",0083A00069,1,1994-03-02,2011-02-04,2017-09-01,2017-09-01,40.47041914698116,-79.9313441939156,East Liberty,9,11,3-4,5,2,Central,Highland
426676,0107M00039000000,"2104 MAZETTE PL, PITTSBURGH, PA 15205",0107M00039,0,2002-11-07,2007-03-15,2017-09-01,2017-09-01,40.446581518227205,-80.0841176670619,Fairywood,2,28,1-16,6,5,Northern,Emerald
426677,0107M00025000000,"3460 MAZETTE PL, PITTSBURGH, PA 15205",0107M00025,1,2002-02-11,2014-02-24,2017-09-01,2017-09-01,40.446800790775335,-80.08371435287567,Fairywood,2,28,1-16,6,5,Northern,Emerald
426678,0107M00083000000,"2129 MAZETTE PL, PITTSBURGH, PA 15205",0107M00083,0,1993-02-10,1993-02-10,2017-09-01,2017-09-01,40.445773767439135,-80.08427419062834,Fairywood,2,28,1-16,6,5,Northern,Emerald
426679,0107M00040000000,"2108 MAZETTE PL, PITTSBURGH, PA 15205",0107M00040,2000,2002-10-04,2008-06-02,2017-09-01,2017-09-01,40.44647659695852,-80.08423830295827,Fairywood,2,28,1-16,6,5,Northern,Emerald
426680,0070E00016000000,"522 W PROSPECT AVE, PITTSBURGH, PA 15205",0070E00016,1,2001-12-27,2013-09-30,2017-09-01,2017-09-01,40.44824352099337,-80.08205528493357,Fairywood,2,28,1-16,6,5,Northern,Emerald
426681,0107M00013000000,"BROADHEAD AVE, PITTSBURGH, PA 15205",0107M00013,12775,2002-02-21,2013-12-03,2017-09-01,2017-09-01,40.44747919153692,-80.08300654392336,Fairywood,2,28,1-16,6,5,Northern,Emerald
426682,0134E00060000000,"63 WHEELING ST, PITTSBURGH, PA 15207",0134E00060,22900,2002-04-22,2006-05-12,2017-09-01,2017-09-01,40.3807136668871,-79.93222350986504,Hays,5,31,4-20,4,3,Eastern,Frick
426683,0134E00121000000,"71 WHEELING ST, PITTSBURGH, PA 15207",0134E00121,50000,2001-10-10,2001-10-10,2017-09-01,2017-09-01,40.380293388493335,-79.93189394423239,Hays,5,31,4-20,4,3,Eastern,Frick
426684,0056G00096000A00,"4928 GLENWOOD AVE, PITTSBURGH, PA 15207",0056G00096A,4400,2000-12-08,2007-10-01,2017-09-01,2017-09-01,40.4100508413285,-79.94059782413369,Hazelwood,5,15,2-13,4,3,Eastern,Frick
426685,0174A00230000000,"7047 HERMITAGE ST, PITTSBURGH, PA 15208",0174A00230,1,2002-08-06,2008-06-02,2017-09-01,2017-09-01,40.46109835705644,-79.8982599541316,Homewood North,9,13,3-18,5,2,Eastern,Highland
426686,0125H00168000A00,"7004 FIELDING WAY, PITTSBURGH, PA 15208",0125H00168A,600,,,2017-09-01,2017-09-01,40.45971748943574,-79.90030834333258,Homewood North,9,13,3-17,5,2,Eastern,Highland
426687,0174A00300000000,"7050 HERMITAGE ST, PITTSBURGH, PA 15208",0174A00300,1775,2002-02-25,2007-01-25,2017-09-01,2017-09-01,40.46070719021108,-79.89830108785237,Homewood North,9,13,3-18,5,2,Eastern,Highland
426688,0174F00270000000,"7324 RACE ST, PITTSBURGH, PA 15208",0174F00270,35000,2001-10-26,2011-02-01,2017-09-01,2017-09-01,40.4578499318002,-79.8922569780966,Homewood North,9,13,3-17,5,2,Eastern,Highland
426689,0174A00299000000,"7052 HERMITAGE ST, PITTSBURGH, PA 15208",0174A00299,5000,2001-11-02,2013-03-01,2017-09-01,2017-09-01,40.460687189581165,-79.8982179846584,Homewood North,9,13,3-18,5,2,Eastern,Highland
426690,0174F00315000000,"7220 IDLEWILD ST, PITTSBURGH, PA 15208",0174F00315,34527,2002-03-27,2004-05-21,2017-09-01,2017-09-01,40.457756694930026,-79.89509236895069,Homewood North,9,13,3-17,5,2,Eastern,Highland
426691,0174B00193000000,"7212 MOUNT VERNON ST, PITTSBURGH, PA 15208",0174B00193,17000,2002-09-16,2009-05-05,2017-09-01,2017-09-01,40.46108787297233,-79.89404161401701,Homewood North,9,13,3-17,5,2,Eastern,Highland
426692,0174B00279000000,"7237 KEDRON ST, PITTSBURGH, PA 15208",0174B00279,0,2002-05-17,2009-11-25,2017-09-01,2017-09-01,40.46067052929516,-79.8933837952393,Homewood North,9,13,3-17,5,2,Eastern,Highland
426693,0125D00115000A00,"7000 KEDRON ST, PITTSBURGH, PA 15208",0125D00115A,3000,1989-11-28,1989-11-28,2017-09-01,2017-09-01,40.4617690451128,-79.89970456456825,Homewood North,9,13,3-18,5,2,Eastern,Highland
426694,0174F00271000000,"7326 RACE ST, PITTSBURGH, PA 15208",0174F00271,0,1996-06-25,1996-06-25,2017-09-01,2017-09-01,40.45782211872595,-79.89213750836801,Homewood North,9,13,3-17,5,2,Eastern,Highland
426695,0174K00013000000,"7333 IDLEWILD ST, PITTSBURGH, PA 15208",0174K00013,22000,2002-02-18,2014-03-31,2017-09-01,2017-09-01,40.45752880411801,-79.89226928958614,Homewood North,9,13,3-17,5,2,Eastern,Highland
426696,0174C00169000100,"7354 STRANAHAN ST, PITTSBURGH, PA 15206",0174C001690001,4000,2002-02-18,2007-01-23,2017-09-01,2017-09-01,40.461508742640405,-79.89024569648454,Homewood North,9,13,3-18,5,2,Eastern,Highland
426697,0173N00377000000,"7021 MOUNT VERNON ST, PITTSBURGH, PA 15208",0173N00377,700,1982-10-29,1982-10-29,2017-09-01,2017-09-01,40.46254408009651,-79.89866531179962,Homewood North,9,13,3-18,5,2,Eastern,Highland
426698,0173N00373000000,"MOUNT VERNON ST, PITTSBURGH, PA 15208",0173N00373,8000,2002-03-15,2009-03-11,2017-09-01,2017-09-01,40.46260982394215,-79.89894333099822,Homewood North,9,13,3-18,5,2,Eastern,Highland
426699,0174A00231000000,"7049 HERMITAGE ST, PITTSBURGH, PA 15208",0174A00231,8000,2002-05-21,2004-11-09,2017-09-01,2017-09-01,40.46108326402419,-79.89819202774481,Homewood North,9,13,3-18,5,2,Eastern,Highland
426700,0174A00121000000,"7023 KEDRON ST, PITTSBURGH, PA 15208",0174A00121,0,2002-07-01,2007-03-01,2017-09-01,2017-09-01,40.46191000844705,-79.89884435532582,Homewood North,9,13,3-18,5,2,Eastern,Highland
426701,0174N00306000000,"7226 SUSQUEHANNA ST, PITTSBURGH, PA 15208",0174N00306,20000,,2016-02-04,2017-09-01,2017-09-01,40.45309458776497,-79.8972648760572,Homewood South,9,13,3-17,5,2,Eastern,Frick
426702,0174R00067000000,"7629 KELLY ST, PITTSBURGH, PA 15208",0174R00067,0,1983-03-18,2006-07-25,2017-09-01,2017-09-01,40.45406112744279,-79.88948572446039,Homewood South,9,13,3-17,5,2,Eastern,Frick
426703,0124S00264000000,"6937 MOUNT VERNON ST, PITTSBURGH, PA 15208",0124S00264,9400,1995-09-27,1995-09-27,2017-09-01,2017-09-01,40.46297897864644,-79.90055360041771,Homewood West,9,12,3-18,5,2,Eastern,Highland
426704,0124S00197000000,"6913 ODESSA PL, PITTSBURGH, PA 15206",0124S00197,1000,2000-09-27,2000-09-27,2017-09-01,2017-09-01,40.463265996471314,-79.90146442133937,Homewood West,9,12,3-18,5,2,Eastern,Highland
426705,0124S00220000000,"MOUNT VERNON ST, PITTSBURGH, PA 15208",0124S00220,700,2002-08-15,2016-12-30,2017-09-01,2017-09-01,40.462806875366,-79.90148457978025,Homewood West,9,12,3-18,5,2,Eastern,Highland
426706,0124S00215000000,"6921 BELMAR ST, PITTSBURGH, PA 15208",0124S00215,0,1990-02-05,2008-08-06,2017-09-01,2017-09-01,40.46314760706035,-79.90107117615517,Homewood West,9,12,3-18,5,2,Eastern,Highland
426707,0124S00265000000,"6935 MOUNT VERNON ST, PITTSBURGH, PA 15208",0124S00265,0,1998-04-29,1998-04-29,2017-09-01,2017-09-01,40.46299628577471,-79.90062194658319,Homewood West,9,12,3-18,5,2,Eastern,Highland
426708,0124S00255000000,"6941 MOUNT VERNON ST, PITTSBURGH, PA 15208",0124S00255,20000,1991-02-12,1991-02-12,2017-09-01,2017-09-01,40.46285390718149,-79.90000036704862,Homewood West,9,12,3-18,5,2,Eastern,Highland
426709,0124S00252000000,"6959 MOUNT VERNON ST, PITTSBURGH, PA 15208",0124S00252,1,2002-08-02,2009-03-30,2017-09-01,2017-09-01,40.462772913729594,-79.89980305503855,Homewood West,9,12,3-18,5,2,Eastern,Highland
426710,0124S00213000000,"MOUNT VERNON ST, PITTSBURGH, PA 15208",0124S00213,1,2000-12-08,2000-12-08,2017-09-01,2017-09-01,40.46320779879908,-79.90094774122159,Homewood West,9,12,3-18,5,2,Eastern,Highland
426711,0125G00082000000,"6820 FRANKSTOWN AVE, PITTSBURGH, PA 15208",0125G00082,41000,2001-03-19,2012-03-23,2017-10-27,2017-09-01,40.45794476876766,-79.90521134515554,Homewood West,9,12,3-17,5,2,Eastern,Highland
426712,0124S00260000000,"6909 MOUNT VERNON ST, PITTSBURGH, PA 15208",0124S00260,0,2002-03-05,2008-07-10,2017-09-01,2017-09-01,40.46291192963962,-79.90026186836336,Homewood West,9,12,3-18,5,2,Eastern,Highland
426713,0033F00092000000,"215 SUNCREST ST, PITTSBURGH, PA 15210",0033F00092,0,2002-08-01,2008-07-07,2017-09-01,2017-09-01,40.410756002928736,-79.9912291310495,Knoxville,3,30,4-7,3,4,Southern,Emerald
426714,0014R00025000000,"121 ZARA ST, PITTSBURGH, PA 15210",0014R00025,34800,2002-05-23,2006-03-02,2017-09-01,2017-09-01,40.41609891767912,-79.98924636487446,Knoxville,3,30,4-6,3,4,Southern,Emerald
426715,0014K00106000000,"324 ORCHARD PL, PITTSBURGH, PA 15210",0014K00106,900,1998-05-18,1998-05-18,2017-09-01,2017-09-01,40.41776461624028,-79.99430617247624,Knoxville,3,30,4-21,3,4,Southern,Emerald
426716,0014P00257000000,"238 BAUSMAN ST, PITTSBURGH, PA 15210",0014P00257,42500,2002-06-06,2009-01-31,2017-09-01,2017-09-01,40.41410639781408,-79.99239188511098,Knoxville,3,30,4-7,3,4,Southern,Emerald
426717,0014K00238000000,"209 CHARLES ST, PITTSBURGH, PA 15210",0014K00238,0,2018-01-03,2010-07-08,2017-09-01,2017-09-01,40.416782156770154,-79.99120093796547,Knoxville,3,30,4-6,3,4,Southern,Emerald
426718,0125C00154000000,"6615 ARMSTRONG WAY, PITTSBURGH, PA 15206",0125C00154,0,1998-04-16,1998-04-16,2017-09-01,2017-09-01,40.461292267450624,-79.90693653592606,Larimer,9,12,3-12,5,2,Eastern,Highland
426719,0125E00111000000,"6556 FRANKSTOWN AVE, PITTSBURGH, PA 15206",0125E00111,10000,,2020-06-08,2017-09-01,2017-09-01,40.45965815273123,-79.91228862278787,Larimer,9,12,3-10,5,2,Eastern,Highland
426720,0124R00306000000,"6613 LYRIC ST, PITTSBURGH, PA 15206",0124R00306,1,1998-01-31,1998-01-31,2017-09-01,2017-09-01,40.46455001683256,-79.90451912168902,Lincoln-Lemington-Belmar,9,12,3-15,5,2,Eastern,Highland
426721,0124G00341000000,"1101 LARIMER AVE, PITTSBURGH, PA 15206",0124G00341,0,2001-04-25,2001-04-25,2017-09-01,2017-09-01,40.46808165817774,-79.90729934187992,Lincoln-Lemington-Belmar,9,12,3-15,5,2,Eastern,Highland
426722,0124S00055000000,"1013 LINCOLN AVE, PITTSBURGH, PA 15206",0124S00055,4000,2001-12-24,2003-01-07,2017-09-01,2017-09-01,40.46422239211768,-79.90156723371399,Lincoln-Lemington-Belmar,9,12,3-15,5,2,Eastern,Highland
426723,0124S00050000000,"1017 LINCOLN AVE, PITTSBURGH, PA 15206",0124S00050,0,2001-02-28,2006-08-30,2017-09-01,2017-09-01,40.46423308555585,-79.9012877730702,Lincoln-Lemington-Belmar,9,12,3-15,5,2,Eastern,Highland
426724,0044H00078000000,"1501 WOODLAND AVE, PITTSBURGH, PA 15212",0044H00078,1,2002-02-13,2002-02-13,2017-09-01,2017-09-01,40.4682937371897,-80.03328730968755,Marshall-Shadeland,1,27,1-14,1,1,Northern,Riverview
426725,0010L00249000000,"2417 CENTRE AVE, PITTSBURGH, PA 15219",0010L00249,1000,2000-12-05,2006-09-15,2017-09-01,2017-09-01,40.44579849827942,-79.97146380802336,Middle Hill,6,5,2-5,2,3,Central,Schenley
426726,0015A00082000000,"627 CHESS ST, PITTSBURGH, PA 15211",0015A00082,0,1999-02-08,2004-07-21,2017-09-01,2017-09-01,40.421659854491594,-80.01357584231003,Mount Washington,2,19,4-27,3,5,Southern,Emerald
426727,0013N00251000000,"440 PARKWOOD RD, PITTSBURGH, PA 15210",0013N00251,16600,2002-03-08,2008-02-19,2017-09-01,2017-09-01,40.41400179609711,-79.9798946772778,Mt. Oliver,3,16,4-8,3,4,Southern,Schenley
426728,0013N00253000000,"436 PARKWOOD RD, PITTSBURGH, PA 15210",0013N00253,3000,2002-02-22,2012-03-23,2017-09-01,2017-09-01,40.41399530481223,-79.98002846201244,Mt. Oliver,3,16,4-8,3,4,Southern,Schenley
426729,0115B00018000000,"MONTVIEW ST, PITTSBURGH, PA 15214",0115B00018,0,1987-02-05,1987-02-05,2017-09-01,2017-09-01,40.49134947611057,-80.0257926192931,Perry North,1,26,1-15,1,1,Northern,Riverview
426730,0115B00019000000,"MONTVIEW ST, PITTSBURGH, PA 15214",0115B00019,0,1987-02-05,1987-02-05,2017-09-01,2017-09-01,40.491316976095206,-80.02587361384201,Perry North,1,26,1-15,1,1,Northern,Riverview
426731,0077F00025000000,"3116 PERRYSVILLE AVE, PITTSBURGH, PA 15214",0077F00025,7500,2002-11-25,2014-06-02,2017-09-01,2017-09-01,40.47796214039807,-80.01183616864692,Perry North,1,26,1-23,1,1,Northern,Riverview
426732,0045H00159000000,"726 MAGINN ST, PITTSBURGH, PA 15214",0045H00159,51500,1998-02-17,1998-02-17,2017-09-01,2017-09-01,40.46865768750369,-80.01786360258066,Perry South,6,26,1-12,1,1,Northern,Riverview
426733,0045M00346000000,"CHESTER AVE, PITTSBURGH, PA 15214",0045M00346,0,1996-12-04,2007-03-15,2017-09-01,2017-09-01,40.46587349462676,-80.01692061790203,Perry South,6,26,1-12,1,1,Northern,Riverview
426734,0046N00346000000,"506 MCCLINTOCK AVE, PITTSBURGH, PA 15214",0046N00346,0,2018-01-03,2011-06-15,2017-09-01,2017-09-01,40.46315083505381,-80.0142718282735,Perry South,6,25,1-10,1,1,Northern,Riverview
426735,0046N00253000000,"2036 PERRYSVILLE AVE, PITTSBURGH, PA 15214",0046N00253,10000,2002-06-07,2016-03-28,2017-09-01,2017-09-01,40.463463816810176,-80.01211727198752,Perry South,6,25,1-10,1,1,Northern,Riverview
426736,0077N00103000000,"243 KENNEDY AVE, PITTSBURGH, PA 15214",0077N00103,21000,2002-08-28,2013-02-04,2017-09-01,2017-09-01,40.473965294921385,-80.01218310916276,Perry South,1,26,1-23,1,1,Northern,Riverview
426737,0024F00152000A00,"1033 SALTER WAY, PITTSBURGH, PA 15212",0024F00152A,0,1989-08-15,1989-08-15,2017-09-01,2017-09-01,40.459326959979215,-79.99408819387291,Spring Garden,1,23,1-5,1,1,Northern,Riverview
426738,0024C00140000000,"1256 HIGH ST, PITTSBURGH, PA 15212",0024C00140,2000,2001-02-07,2001-02-07,2017-09-01,2017-09-01,40.461349087549216,-79.98966082621459,Spring Garden,1,24,1-5,1,1,Northern,Riverview
426739,0047M00155000000,"1601 SPRING GARDEN AVE, PITTSBURGH, PA 15212",0047M00155,3500,2002-03-08,2017-03-15,2017-09-01,2017-09-01,40.466223801984206,-79.985010545332,Spring Garden,1,26,1-11,1,1,Northern,Riverview
426740,0024C00136000000,"1260 HIGH ST, PITTSBURGH, PA 15212",0024C00136,5000,1998-05-06,1998-05-06,2017-09-01,2017-09-01,40.46120807338488,-79.98951414150719,Spring Garden,1,24,1-5,1,1,Northern,Riverview
426741,0048A00286000000,"2115 STRAUBS LN, PITTSBURGH, PA 15212",0048A00286,15000,2002-05-31,2003-05-02,2017-09-01,2017-09-01,40.46988188066612,-79.97894573807808,Troy Hill,1,24,1-2,1,1,Northern,Riverview
426742,0048F00037000000,"2112 LAUTNER ST, PITTSBURGH, PA 15212",0048F00037,11000,1996-02-01,1996-02-01,2017-09-01,2017-09-01,40.468849544795525,-79.9782765972032,Troy Hill,1,24,1-2,1,1,Northern,Riverview
426743,0027B00281000000,"750 CHEROKEE ST, PITTSBURGH, PA 15219",0027B00281,1,1997-08-01,1997-08-01,2017-09-01,2017-09-01,40.45155538056995,-79.96161000346795,Upper Hill,6,5,2-22,2,3,Central,Schenley
426744,0027B00137000000,"813 ANAHEIM ST, PITTSBURGH, PA 15219",0027B00137,0,2005-03-09,2008-03-03,2017-10-27,2017-09-01,40.45197851455966,-79.96000313837072,Upper Hill,6,5,2-22,2,3,Central,Schenley
426745,0040R00147000000,"HYDE ST, PITTSBURGH, PA 15205",0040R00147,0,,,2017-09-01,2017-09-01,40.43390521614883,-80.05695347077241,Westwood,2,28,1-18,6,5,Northern,Emerald
426746,0014A00397000000,"119 MILLBRIDGE ST, PITTSBURGH, PA 15210",0014A00397,0,1996-09-30,1996-09-30,2017-10-27,2017-10-27,40.42119513525248,-79.99553073059381,Allentown,3,18,4-21,3,4,Southern,Emerald
426747,0014K00004000000,"722 LILLIAN ST, PITTSBURGH, PA 15210",0014K00004,50000,2002-02-18,2010-01-29,2017-10-27,2017-10-27,40.41852452088527,-79.99481804181629,Allentown,3,18,4-21,3,4,Southern,Emerald
426748,0014E00318000000,"205 MILLBRIDGE ST, PITTSBURGH, PA 15210",0014E00318,1,2001-03-15,2001-03-15,2017-10-27,2017-10-27,40.42057972107409,-79.99551085973833,Allentown,3,18,4-21,3,4,Southern,Emerald
426749,0014F00371000000,"867 LILLIAN ST, PITTSBURGH, PA 15210",0014F00371,42000,2002-07-15,2008-03-27,2017-10-27,2017-10-27,40.4188893852506,-79.99114185749022,Allentown,3,18,4-6,3,4,Southern,Emerald
426750,0013R00181000000,"210 FLACK ST, PITTSBURGH, PA 15210",0013R00181,6500,1987-02-03,1987-02-03,2017-10-27,2017-10-27,40.41517459529519,-79.9709556147215,Arlington,3,16,4-8,3,4,Southern,Schenley
426751,0010C00085000000,"2628 BEDFORD AVE, PITTSBURGH, PA 15219",0010C00085,1,2002-08-01,2017-03-15,2017-10-27,2017-10-27,40.45134977062772,-79.97039584863158,Bedford Dwellings,6,5,2-5,2,3,Central,Schenley
426752,0010C00076000000,"2610 BEDFORD AVE, PITTSBURGH, PA 15219",0010C00076,1,1990-07-19,1990-07-19,2017-10-27,2017-10-27,40.45108665892466,-79.97101441698217,Bedford Dwellings,6,5,2-5,2,3,Central,Schenley
426753,0010C00077000000,"2612 BEDFORD AVE, PITTSBURGH, PA 15219",0010C00077,250,1990-07-19,1990-07-19,2017-10-27,2017-10-27,40.45111805494496,-79.97093837131646,Bedford Dwellings,6,5,2-5,2,3,Central,Schenley
426754,0014E00148000000,"501 INDUSTRY ST, PITTSBURGH, PA 15210",0014E00148,5250,2002-09-18,2013-11-01,2017-10-27,2017-10-27,40.420857551148586,-79.99875342203123,Beltzhoover,3,18,4-21,3,4,Southern,Emerald
426755,0014E00068000000,"525 FREELAND ST, PITTSBURGH, PA 15210",0014E00068,800,2001-12-24,2004-05-14,2017-10-27,2017-10-27,40.41927737336227,-79.99787483850393,Beltzhoover,3,18,4-21,3,4,Southern,Emerald
426756,0011K00078000000,"2 SENECA ST, PITTSBURGH, PA 15213",0011K00078,5000,1997-03-04,1997-03-04,2017-10-27,2017-10-27,40.43757970367746,-79.97569921394657,Bluff,6,4,2-1,2,3,Central,Schenley
426757,0022G00192000000,"942 CALIFORNIA AVE, PITTSBURGH, PA 15212",0022G00192,1,2000-07-24,2003-02-18,2017-10-27,2017-10-27,40.4592032832206,-80.02070047738843,California-Kirkbride,6,25,1-9,1,1,Northern,Riverview
426758,0022G00191000000,"938 CALIFORNIA AVE, PITTSBURGH, PA 15212",0022G00191,1,2000-07-24,2003-02-18,2017-10-27,2017-10-27,40.459210741055,-80.02062138268192,California-Kirkbride,6,25,1-9,1,1,Northern,Riverview
426759,0022G00189000000,"936 CALIFORNIA AVE, PITTSBURGH, PA 15212",0022G00189,1,2000-07-24,2004-02-10,2017-10-27,2017-10-27,40.45923466693847,-80.02054981618858,California-Kirkbride,6,25,1-9,1,1,Northern,Riverview
426760,0022C00074000000,"1204 CALIFORNIA AVE, PITTSBURGH, PA 15212",0022C00074,1000,1986-01-31,1986-01-31,2017-10-27,2017-10-27,40.46037877278834,-80.02441009091957,California-Kirkbride,6,21,1-9,1,1,Northern,Riverview
426761,0060P00333000000,"212 NEWETT ST, PITTSBURGH, PA 15210",0060P00333,4850,2002-02-22,2012-05-22,2017-10-27,2017-10-27,40.39665456808565,-79.99132639081718,Carrick,4,29,4-23,3,4,Southern,Schenley
426762,0059N00175000000,"REDROSE AVE, PITTSBURGH, PA 15210",0059N00175,0,1999-07-14,1999-07-14,2017-10-27,2017-10-27,40.394790223592814,-79.9809507636334,Carrick,4,29,4-12,3,4,Southern,Schenley
426763,0023G00058000000,"1417 BOYLE ST, PITTSBURGH, PA 15212",0023G00058,0,2002-11-19,2005-09-09,2017-10-27,2017-10-27,40.45792734990372,-80.0067019974605,Central Northside,6,25,1-6,1,1,Northern,Riverview
426764,0023F00045000000,"PERRYSVILLE AVE, PITTSBURGH, PA 15212",0023F00045,1,2000-07-21,2000-07-21,2017-10-27,2017-10-27,40.45984896367575,-80.0098262557417,Central Northside,6,25,1-10,1,1,Northern,Riverview
426765,0175H00223000000,"8017 NIMICK PL, PITTSBURGH, PA 15221",0175H00223,12350,2001-08-08,2009-01-07,2017-10-27,2017-10-27,40.45019996076898,-79.8836171460485,East Hills,9,13,3-17,5,2,Eastern,Frick
426766,0046P00334000000,"2106 LETSCHE ST, PITTSBURGH, PA 15214",0046P00334,1,2002-02-22,2012-05-18,2017-10-27,2017-10-27,40.46473661452546,-80.00878965608989,Fineview,6,25,1-10,1,1,Northern,Riverview
426767,0023D00084000000,"69 EDENVALE ST, PITTSBURGH, PA 15212",0023D00084,8800,1995-03-29,2014-02-28,2017-10-27,2017-10-27,40.462386632783726,-80.00331954675843,Fineview,1,25,1-10,1,1,Northern,Riverview
426768,0023D00085000000,"71 EDENVALE ST, PITTSBURGH, PA 15212",0023D00085,0,2001-04-23,2007-03-15,2017-10-27,2017-10-27,40.462436822105786,-80.0033294951283,Fineview,1,25,1-10,1,1,Northern,Riverview
426769,0050H00134000000,"N GRAHAM ST, PITTSBURGH, PA 15206",0050H00134,52109,1993-11-29,1993-11-29,2017-10-27,2017-10-27,40.467904428238,-79.93373652556771,Garfield,9,11,3-4,5,2,Central,Highland
426770,0057C00213000000,"54 ALMEDA ST, PITTSBURGH, PA 15207",0057C00213,10176,1990-01-26,1990-01-26,2017-10-27,2017-10-27,40.40320456954967,-79.93955294888566,Hazelwood,5,15,2-13,4,3,Eastern,Frick
426771,0056F00319000A00,"132 MARSDEN ST, PITTSBURGH, PA 15207",0056F00319A,7200,2002-02-27,2016-05-24,2017-10-27,2017-10-27,40.41048827258487,-79.94313014082827,Hazelwood,5,15,2-13,4,3,Eastern,Frick
426772,0174F00093000000,"7338 HERMITAGE ST, PITTSBURGH, PA 15208",0174F00093,1,2002-02-26,2008-06-09,2017-10-27,2017-10-27,40.45914957561579,-79.8915236112618,Homewood North,9,13,3-17,5,2,Eastern,Highland
426773,0173N00202000000,"7053 CHAUCER ST, PITTSBURGH, PA 15208",0173N00202,0,2002-08-05,2010-03-12,2017-10-27,2017-10-27,40.46363234243627,-79.8970245003593,Homewood North,9,13,3-18,5,2,Eastern,Highland
426774,0173N00200000000,"7051 CHAUCER ST, PITTSBURGH, PA 15208",0173N00200,0,1981-10-30,1981-10-30,2017-10-27,2017-10-27,40.4636557862159,-79.89712617456355,Homewood North,9,13,3-18,5,2,Eastern,Highland
426775,0175C00303000000,"335 HALE ST, PITTSBURGH, PA 15208",0175C00303,1,1985-08-15,2017-03-01,2017-10-27,2017-10-27,40.451875097225646,-79.88795256117966,Homewood South,9,13,3-17,5,2,Eastern,Frick
426776,0174P00173000000,"7349 HAMILTON AVE, PITTSBURGH, PA 15208",0174P00173,500,2002-02-27,2012-07-11,2017-10-27,2017-10-27,40.45396006659822,-79.89369994114534,Homewood South,9,13,3-17,5,2,Eastern,Frick
426777,0175C00304000000,"HALE ST, PITTSBURGH, PA 15208",0175C00304,8995,1984-01-27,2017-03-01,2017-10-27,2017-10-27,40.45182193815161,-79.88799293031458,Homewood South,9,13,3-17,5,2,Eastern,Frick
426778,0014N00168000000,"433 ZARA ST, PITTSBURGH, PA 15210",0014N00168,36000,2002-02-19,2016-10-03,2017-10-27,2017-10-27,40.41589461682685,-79.99676424949725,Knoxville,3,30,4-21,3,4,Southern,Emerald
426779,0125B00064000000,"6520 WINSLOW ST, PITTSBURGH, PA 15206",0125B00064,10000,2002-07-29,2009-07-24,2017-10-27,2017-10-27,40.46209626836641,-79.9095814207837,Larimer,9,12,3-12,5,2,Eastern,Highland
426780,0172R00153000000,"7165 VERONA BLVD, PITTSBURGH, PA 15235",0172R00153,5120,2002-04-29,2002-04-29,2017-10-27,2017-10-27,40.473942557014794,-79.88822096502486,Lincoln-Lemington-Belmar,9,12,3-18,5,2,Eastern,Highland
426781,0124L00264000000,"6546 ROWAN ST, PITTSBURGH, PA 15206",0124L00264,21287,2002-07-12,2004-07-12,2017-10-27,2017-10-27,40.46578390327723,-79.90564566672677,Lincoln-Lemington-Belmar,9,12,3-15,5,2,Eastern,Highland
426782,0022E00289000000,"1424 ADAMS ST, PITTSBURGH, PA 15233",0022E00289,0,1982-10-27,1982-10-27,2017-10-27,2017-10-27,40.45861182753762,-80.0288051245427,Manchester,6,21,1-8,1,1,Northern,Riverview
426783,0022E00274000000,"1902 CHATEAU ST, PITTSBURGH, PA 15233",0022E00274,0,2002-04-04,2014-03-18,2017-10-27,2017-10-27,40.458472777313965,-80.02950948783293,Manchester,6,21,1-8,1,1,Northern,Riverview
426784,0022F00142000000,"WARNER ST, PITTSBURGH, PA 15233",0022F00142,0,1979-04-30,1979-04-30,2017-10-27,2017-10-27,40.45841117878276,-80.02687375463037,Manchester,6,21,1-8,1,1,Northern,Riverview
426785,0022F00155000000,"1817 FULTON ST, PITTSBURGH, PA 15233",0022F00155,1,2001-04-10,2005-05-03,2017-10-27,2017-10-27,40.45850649847593,-80.02630042178073,Manchester,6,21,1-8,1,1,Northern,Riverview
426786,0022E00259000A00,"1430 WARNER ST, PITTSBURGH, PA 15233",0022E00259A,0,,,2017-10-27,2017-10-27,40.45804156361264,-80.02884041102652,Manchester,6,21,1-8,1,1,Northern,Riverview
426787,0022E00266000000,"1814 CHATEAU ST, PITTSBURGH, PA 15233",0022E00266,0,2002-06-13,2008-02-11,2017-10-27,2017-10-27,40.45788372714989,-80.02939872303605,Manchester,6,21,1-8,1,1,Northern,Riverview
426788,0022E00280000A00,"1445 BELDALE ST, PITTSBURGH, PA 15233",0022E00280A,1,2002-05-17,2002-05-17,2017-10-27,2017-10-27,40.45867514776843,-80.02935804921012,Manchester,6,21,1-8,1,1,Northern,Riverview
426789,0022F00146000A00,"1311 ADAMS ST, PITTSBURGH, PA 15233",0022F00146A,1,1999-05-03,2003-04-18,2017-10-27,2017-10-27,40.45863565434593,-80.02663662945112,Manchester,6,21,1-8,1,1,Northern,Riverview
426790,0022E00282000000,"1434 ADAMS ST, PITTSBURGH, PA 15233",0022E00282,0,1994-12-01,1994-12-01,2017-10-27,2017-10-27,40.4586123864785,-80.02918325703601,Manchester,6,21,1-8,1,1,Northern,Riverview
426791,0022E00311000000,"1446 BELDALE ST, PITTSBURGH, PA 15233",0022E00311,0,1990-02-12,1990-02-12,2017-10-27,2017-10-27,40.45892147411654,-80.02943634940337,Manchester,6,21,1-8,1,1,Northern,Riverview
426792,0022E00273000000,"1900 CHATEAU ST, PITTSBURGH, PA 15233",0022E00273,8200,2002-02-22,2016-05-12,2017-10-27,2017-10-27,40.458408883069886,-80.02949279144046,Manchester,6,21,1-8,1,1,Northern,Riverview
426793,0022E00243000000,"1449 WARNER ST, PITTSBURGH, PA 15233",0022E00243,1,2002-06-26,2016-03-16,2017-10-27,2017-10-27,40.45772209178664,-80.02925636917992,Manchester,6,21,1-8,1,1,Northern,Riverview
426794,0022E00261000000,"1437 ADAMS ST, PITTSBURGH, PA 15233",0022E00261,32500,2002-07-02,2007-03-28,2017-10-27,2017-10-27,40.45811409809945,-80.02901414713456,Manchester,6,21,1-8,1,1,Northern,Riverview
426795,0022E00258000000,"1428 WARNER ST, PITTSBURGH, PA 15233",0022E00258,0,,,2017-10-27,2017-10-27,40.458053201964894,-80.02877073154707,Manchester,6,21,1-8,1,1,Northern,Riverview
426796,0022E00290000000,"1422 ADAMS ST, PITTSBURGH, PA 15233",0022E00290,0,1989-11-08,1989-11-08,2017-10-27,2017-10-27,40.45863321395554,-80.02873807009523,Manchester,6,21,1-8,1,1,Northern,Riverview
426797,0044M00018000C00,"108 IRELAND WAY, PITTSBURGH, PA 15212",0044M00018C,1,2002-05-13,2008-10-17,2017-10-27,2017-10-27,40.466845970118825,-80.03323513325661,Marshall-Shadeland,1,27,1-14,1,1,Northern,Riverview
426798,0010F00105000000,"2352 BEDFORD AVE, PITTSBURGH, PA 15219",0010F00105,1,1976-11-05,1976-11-05,2017-10-27,2017-10-27,40.4494669222377,-79.97478304455917,Middle Hill,6,5,2-5,2,3,Central,Schenley
426799,0010G00356000000,"WEBSTER AVE, PITTSBURGH, PA 15219",0010G00356,120144,2002-11-12,2009-05-12,2017-10-27,2017-10-27,40.449316931322734,-79.97398444689729,Middle Hill,6,5,2-5,2,3,Central,Schenley
426800,0010G00212000000,"DUFF ST, PITTSBURGH, PA 15219",0010G00212,32500,1995-05-12,1995-05-12,2017-10-27,2017-10-27,40.448647657285,-79.9732736678258,Middle Hill,6,5,2-5,2,3,Central,Schenley
426801,0010D00128000000,"713 WEBSTER TER, PITTSBURGH, PA 15219",0010D00128,2500,1999-09-07,2015-04-17,2017-10-27,2017-10-27,40.45199905522663,-79.96805982091492,Middle Hill,6,5,2-5,2,3,Central,Schenley
426802,0010G00211000000,"DUFF ST, PITTSBURGH, PA 15219",0010G00211,19732,2000-04-26,2000-04-26,2017-10-27,2017-10-27,40.44859770697865,-79.97324382982045,Middle Hill,6,5,2-5,2,3,Central,Schenley
426803,0010F00104000000,"2354 BEDFORD AVE, PITTSBURGH, PA 15219",0010F00104,750,1994-07-12,1994-07-12,2017-10-27,2017-10-27,40.44949635542595,-79.97472594057798,Middle Hill,6,5,2-5,2,3,Central,Schenley
426804,0010G00040000000,"2447 WYLIE AVE, PITTSBURGH, PA 15219",0010G00040,0,2001-12-28,2012-11-30,2017-10-27,2017-10-27,40.44819943465635,-79.97195586003653,Middle Hill,6,5,2-5,2,3,Central,Schenley
426805,0010L00260000000,"CENTRE AVE, PITTSBURGH, PA 15219",0010L00260,69235,1997-08-18,1997-08-18,2017-10-27,2017-10-27,40.44571404722424,-79.97069525779558,Middle Hill,6,5,2-5,2,3,Central,Schenley
426806,0015D00116000000,"61 PASADENA ST, PITTSBURGH, PA 15211",0015D00116,2022,1998-01-28,1998-01-28,2017-10-27,2017-10-27,40.42350723691291,-80.00155401549826,Mount Washington,3,18,4-5,3,4,Southern,Emerald
426807,0045S00140000000,"621 CHAUTAUQUA ST, PITTSBURGH, PA 15214",0045S00140,16000,2002-02-27,2013-11-01,2017-10-27,2017-10-27,40.46396025395544,-80.01714632777542,Perry South,6,25,1-12,1,1,Northern,Riverview
426808,0046J00193000000,"2232 HOLYOKE ST, PITTSBURGH, PA 15214",0046J00193,32000,2001-09-11,2006-05-01,2017-10-27,2017-10-27,40.465596527614714,-80.01387165441962,Perry South,6,26,1-12,1,1,Northern,Riverview
426809,0046J00031000000,"CHESTER AVE, PITTSBURGH, PA 15214",0046J00031,750,1990-11-16,1990-11-16,2017-10-27,2017-10-27,40.466444012581626,-80.01586411490433,Perry South,6,26,1-12,1,1,Northern,Riverview
426810,0045R00121000000,"2316 N CHARLES ST, PITTSBURGH, PA 15214",0045R00121,13500,2002-12-26,2016-04-22,2017-10-27,2017-10-27,40.464790089515255,-80.0203597489129,Perry South,6,26,1-12,1,1,Northern,Riverview
426811,0046J00339000000,"2214 WILSON AVE, PITTSBURGH, PA 15214",0046J00339,5500,2018-01-03,2010-02-08,2017-10-27,2017-10-27,40.465332482386,-80.01253852406536,Perry South,6,26,1-12,1,1,Northern,Riverview
426812,0046J00034000000,"CHESTER AVE, PITTSBURGH, PA 15214",0046J00034,19250,1990-11-16,1990-11-16,2017-10-27,2017-10-27,40.46649879199802,-80.0157433143447,Perry South,6,26,1-12,1,1,Northern,Riverview
426813,0046J00336000000,"2220 WILSON AVE, PITTSBURGH, PA 15214",0046J00336,11500,2002-04-04,2011-08-22,2017-10-27,2017-10-27,40.46552579490778,-80.01258586048195,Perry South,6,26,1-12,1,1,Northern,Riverview
426814,0046J00221000000,"2235 WILSON AVE, PITTSBURGH, PA 15214",0046J00221,32000,2001-08-02,2007-06-08,2017-10-27,2017-10-27,40.46571732663392,-80.01328505413616,Perry South,6,26,1-12,1,1,Northern,Riverview
426815,0046J00033000000,"CHESTER AVE, PITTSBURGH, PA 15214",0046J00033,750,1990-11-16,1990-11-16,2017-10-27,2017-10-27,40.46646746033649,-80.01580695614622,Perry South,6,26,1-12,1,1,Northern,Riverview
426816,0022D00251000000,"2018 N CHARLES ST, PITTSBURGH, PA 15214",0022D00251,0,,,2017-10-27,2017-10-27,40.46208072589637,-80.01765785770039,Perry South,6,25,1-10,1,1,Northern,Riverview
426817,0046J00334000000,"2222 WILSON AVE, PITTSBURGH, PA 15214",0046J00334,8000,2002-07-22,2007-04-24,2017-10-27,2017-10-27,40.465599196420165,-80.01261499564238,Perry South,6,26,1-12,1,1,Northern,Riverview
426818,0026F00316000000,"RIDGWAY ST, PITTSBURGH, PA 15213",0026F00316,17051,1985-03-28,1985-03-28,2017-10-27,2017-10-27,40.45793800190243,-79.95932336480776,Polish Hill,7,6,2-24,2,3,Central,Highland
426819,0026E00310000000,"3418 RUTHVEN ST, PITTSBURGH, PA 15219",0026E00310,0,1994-04-01,1994-04-01,2017-10-27,2017-10-27,40.459716812302005,-79.96297029921706,Polish Hill,7,6,2-6,2,6,Central,Highland
426820,0026E00312000000,"3422 RUTHVEN ST, PITTSBURGH, PA 15219",0026E00312,1000,2000-12-08,2006-09-11,2017-10-27,2017-10-27,40.45974788250773,-79.9628164963832,Polish Hill,7,6,2-6,2,6,Central,Highland
426821,0026K00048000000,"RIDGWAY ST, PITTSBURGH, PA 15213",0026K00048,0,1983-01-20,1983-01-20,2017-10-27,2017-10-27,40.457201381114295,-79.9604913384449,Polish Hill,7,6,2-24,2,3,Central,Highland
426822,0026F00079000000,"FLEETWOOD ST, PITTSBURGH, PA 15213",0026F00079,0,,,2017-10-27,2017-10-27,40.4597447055156,-79.95829789009743,Polish Hill,7,6,2-6,2,6,Central,Highland
426823,0026E00309000000,"3416 RUTHVEN ST, PITTSBURGH, PA 15219",0026E00309,1000,2000-12-08,2007-02-12,2017-10-27,2017-10-27,40.45970160414168,-79.96304414212838,Polish Hill,7,6,2-6,2,6,Central,Highland
426824,0026J00155000000,"RIDGWAY ST, PITTSBURGH, PA 15213",0026J00155,0,1982-03-09,1982-03-09,2017-10-27,2017-10-27,40.45546972863916,-79.9658792307531,Polish Hill,7,6,2-24,2,3,Central,Highland
426825,0026F00318000000,"RIDGWAY ST, PITTSBURGH, PA 15213",0026F00318,0,,,2017-10-27,2017-10-27,40.457833001243735,-79.95950638318023,Polish Hill,7,6,2-24,2,3,Central,Highland
426826,0026K00057000000,"3423 RIDGWAY ST, PITTSBURGH, PA 15213",0026K00057,1,1998-07-28,1998-07-28,2017-10-27,2017-10-27,40.4569943584581,-79.96113131250696,Polish Hill,7,6,2-24,2,3,Central,Highland
426827,0021P00215000000,"2430 GLEN MAWR AVE, PITTSBURGH, PA 15204",0021P00215,1,2001-07-24,2001-07-24,2017-10-27,2017-10-27,40.45314796071233,-80.04309999877195,Sheraden,2,20,1-16,6,5,Northern,Emerald
426828,0042H00137000000,"340 MINTON ST, PITTSBURGH, PA 15204",0042H00137,0,2002-02-11,2013-03-21,2017-10-27,2017-10-27,40.45774353632305,-80.05113522669461,Sheraden,2,20,1-16,6,5,Northern,Emerald
426829,0029C00013000000,"WAKEFIELD ST, PITTSBURGH, PA 15213",0029C00013,0,,,2017-10-27,2017-10-27,40.43109871792006,-79.95717091000569,South Oakland,3,4,2-11,4,3,Central,Schenley
426830,0028P00109000000,"361 LAWN ST, PITTSBURGH, PA 15213",0028P00109,0,1996-02-20,1996-02-20,2017-10-27,2017-10-27,40.43378713332216,-79.96118241406779,South Oakland,3,4,2-10,4,3,Central,Schenley
426831,0012F00108000000,"1925 WRIGHTS WAY, PITTSBURGH, PA 15203",0012F00108,22100,2002-06-07,2006-05-23,2017-10-27,2017-10-27,40.42920178865817,-79.97802578045673,South Side Flats,3,17,4-24,3,4,Southern,Schenley
426832,0012S00196000000,"2808 MARY ST, PITTSBURGH, PA 15203",0012S00196,130000,2002-12-23,2006-03-30,2017-10-27,2017-10-27,40.42397878296367,-79.96781795967486,South Side Slopes,3,16,4-24,3,4,Southern,Schenley
426833,0012S00193000000,"2812 MARY ST, PITTSBURGH, PA 15203",0012S00193,1,2002-07-08,2009-03-04,2017-10-27,2017-10-27,40.423973512362046,-79.96765451937526,South Side Slopes,3,16,4-24,3,4,Southern,Schenley
426834,0024C00326000000,"1307 TELL ST, PITTSBURGH, PA 15212",0024C00326,1,2002-02-19,2008-11-17,2017-10-27,2017-10-27,40.460277270877285,-79.9882200824515,Spring Garden,1,24,1-5,1,1,Northern,Riverview
426835,0024D00003000000,"1417 SPRING GARDEN AVE, PITTSBURGH, PA 15212",0024D00003,0,1984-04-18,1984-04-18,2017-10-27,2017-10-27,40.46210873414678,-79.98689198191505,Spring Garden,1,24,1-24,1,1,Northern,Riverview
426836,0024D00004000000,"1425 SPRING GARDEN AVE, PITTSBURGH, PA 15212",0024D00004,10000,2001-12-06,2004-10-27,2017-10-27,2017-10-27,40.462218117615485,-79.98682510380259,Spring Garden,1,24,1-24,1,1,Northern,Riverview
426837,0024C00327000100,"1307 TELL ST, PITTSBURGH, PA 15212",0024C003270001,1,2002-02-19,2008-03-03,2017-10-27,2017-10-27,40.460235771409295,-79.98811954464254,Spring Garden,1,24,1-5,1,1,Northern,Riverview
426838,0048E00216000000,"1950 LEY ST, PITTSBURGH, PA 15212",0048E00216,12000,1993-02-03,2005-05-24,2017-10-27,2017-10-27,40.46745039139416,-79.98081245072217,Troy Hill,1,24,1-2,1,1,Northern,Riverview
426839,0026P00072000000,"CLARISSA ST, PITTSBURGH, PA 15219",0026P00072,30399,2002-07-30,2007-09-05,2017-10-27,2017-10-27,40.453136837718176,-79.96056557524157,Upper Hill,6,5,2-22,2,3,Central,Schenley
426840,0011F00183000000,"2015 DERAUD ST, PITTSBURGH, PA 15219",0011F00183,11000,2001-04-23,2006-06-27,2017-10-27,2017-10-27,40.43871222658351,-79.9760464324878,West Oakland,6,4,2-1,4,3,Central,Schenley
426841,0011F00186000000,"2007 DERAUD ST, PITTSBURGH, PA 15219",0011F00186,3500,1981-01-22,1981-01-22,2017-10-27,2017-10-27,40.43869079623387,-79.976321629618,West Oakland,6,4,2-1,4,3,Central,Schenley
426842,0011F00181000000,"2013 DERAUD ST, PITTSBURGH, PA 15219",0011F00181,10500,2001-12-31,2001-12-31,2017-10-27,2017-10-27,40.43871832684929,-79.97611948177409,West Oakland,6,4,2-1,4,3,Central,Schenley
426843,0008H00030000000,"300 SANDUSKY ST, PITTSBURGH, PA 15212",0008H00030,0,,,,1978-10-03,40.449805690062064,-80.00187020824703,North Shore,1,22,1-20,1,6,Northern,Riverview
426844,0026N00028000000,"3371 MILWAUKEE ST, PITTSBURGH, PA 15219",0026N00028,1000,1976-12-30,1976-12-30,2002-10-31,1978-09-20,40.45398919324799,-79.96225482896233,Upper Hill,6,5,2-22,2,3,Central,Schenley
426845,0015H00183000000,"INDUSTRY ST, PITTSBURGH, PA 15210",0015H00183,529,1999-07-19,1999-07-19,2003-08-28,2003-08-28,40.42045872862066,-79.99987048473177,Beltzhoover,3,18,4-21,3,4,Southern,Emerald
426846,0015H00164000100,"CLIMAX ST, PITTSBURGH, PA 15210",0015H001640001,1117,1997-02-11,1997-02-11,2003-08-28,2003-08-28,40.41973359428463,-79.99961289298172,Beltzhoover,3,18,4-21,3,4,Southern,Emerald
426847,0014E00011000000,"CURTIN AVE, PITTSBURGH, PA 15210",0014E00011,2659,2000-03-28,2000-03-28,2003-08-28,2003-08-28,40.42050086831166,-79.99915643612566,Beltzhoover,3,18,4-21,3,4,Southern,Emerald
426848,0015H00148000000,"342 CLIMAX ST, PITTSBURGH, PA 15210",0015H00148,2560,1995-05-02,2025-04-17,2003-08-28,2003-08-28,40.419717671696446,-80.00077428695502,Beltzhoover,3,18,4-16,3,4,Southern,Emerald
426849,0014J00158000000,"608 BELTZHOOVER AVE, PITTSBURGH, PA 15210",0014J00158,3269,1998-08-19,1998-08-19,2003-08-28,2003-08-28,40.41708620544311,-79.99751597110259,Beltzhoover,3,18,4-21,3,4,Southern,Emerald
426850,0014J00156000000,"604 BELTZHOOVER AVE, PITTSBURGH, PA 15210",0014J00156,539,1992-09-01,1992-09-01,2003-08-28,2003-08-28,40.417223018039614,-79.99752326451168,Beltzhoover,3,18,4-21,3,4,Southern,Emerald
426851,0014J00157000000,"606 BELTZHOOVER AVE, PITTSBURGH, PA 15210",0014J00157,840,2001-09-24,2001-09-24,2003-08-28,2003-08-28,40.41715405560496,-79.99751901464809,Beltzhoover,3,18,4-21,3,4,Southern,Emerald
426852,0015H00187000000,"215 ESTELLA AVE, PITTSBURGH, PA 15210",0015H00187,842,1982-09-10,1982-09-10,2003-08-28,2003-08-28,40.420141466553176,-80.00022321169781,Beltzhoover,3,18,4-21,3,4,Southern,Emerald
426853,0015H00192000000,"203 ESTELLA AVE, PITTSBURGH, PA 15210",0015H00192,842,1992-09-11,1992-09-11,2003-08-28,2003-08-28,40.42049119363757,-80.00023403803777,Beltzhoover,3,18,4-21,3,4,Southern,Emerald
426854,0015H00158000000,"408 CLIMAX ST, PITTSBURGH, PA 15210",0015H00158,2812,1987-02-09,1987-02-09,2003-08-28,2003-08-28,40.41973189714247,-79.99998993615843,Beltzhoover,3,18,4-21,3,4,Southern,Emerald
426855,0020R00162000000,"711 LORENZ AVE, PITTSBURGH, PA 15220",0020R00162,9574,1999-07-08,1999-07-08,2003-08-28,2003-08-28,40.444594979438094,-80.03931569266638,Elliott,2,20,1-17,6,5,Northern,Emerald
426856,0056F00371000000,"4819 MONONGAHELA ST, PITTSBURGH, PA 15207",0056F00371,1,1990-04-27,1990-04-27,2002-12-13,2003-12-06,40.41115847967161,-79.94222032744149,Hazelwood,5,15,2-13,4,3,Eastern,Frick
426857,0174F00232000000,"7215 RACE ST, PITTSBURGH, PA 15208",0174F00232,2181,2001-04-27,2001-04-27,2003-08-28,2003-08-28,40.45886886335314,-79.89492415006195,Homewood North,9,13,3-17,5,2,Eastern,Highland
426858,0174K00139000000,"FRANKSTOWN AVE, PITTSBURGH, PA 15208",0174K00139,2627,1989-09-19,1989-09-19,2003-08-28,2003-08-28,40.456540425311616,-79.8913876364912,Homewood North,9,13,3-17,5,2,Eastern,Highland
426859,0184E00080000000,"1201 MIFFLIN RD, PITTSBURGH, PA 15207",0184E00080,700000,2002-02-19,2003-03-28,,2003-03-26,40.37134823941921,-79.91447198142748,Lincoln Place,5,31,4-20,4,3,Eastern,Frick
426860,0021N00250000000,"2670 STAFFORD ST, PITTSBURGH, PA 15204",0021N00250,2095,2002-08-02,2003-01-07,2003-11-21,2003-11-21,40.4543969155131,-80.04748364890686,Sheraden,2,20,1-16,6,5,Northern,Emerald
426861,0024F00274000000,"1140 VOSKAMP ST, PITTSBURGH, PA 15212",0024F00274,1199,1993-04-23,1993-04-23,2003-08-28,2003-08-28,40.45948699963644,-79.99224476159702,Spring Garden,1,24,1-5,1,1,Northern,Riverview
426862,0046D00120000000,"2518 EAST ST, PITTSBURGH, PA 15212",0046D00120,1,2002-02-13,2002-02-13,,2003-01-15,40.471964841034286,-80.00172024614288,Spring Hill-City View,1,26,1-11,1,1,Northern,Riverview
426863,0077S00244000000,"SUNSET AVE, PITTSBURGH, PA 15214",0077S00244,1,2002-02-13,2002-02-13,,2003-01-15,40.47296809109598,-80.00080507432115,Spring Hill-City View,1,26,1-11,1,1,Northern,Riverview
426864,0026N00024000000,"3381 MILWAUKEE ST, PITTSBURGH, PA 15219",0026N00024,3445,1993-01-25,1993-01-25,2003-08-28,2003-08-28,40.45416314683902,-79.96199686628435,Upper Hill,6,5,2-22,2,3,Central,Schenley
426865,0011L00051000000,"2311 5TH AVE, PITTSBURGH, PA 15213",0011L00051,447,,,2003-08-28,2003-08-28,40.437814090013084,-79.97242113999917,West Oakland,6,4,2-10,4,3,Central,Schenley
426866,0059J00006000000,"SPRUCEWOOD ST, PITTSBURGH, PA 15210",0059J00006,708,1985-01-17,1985-01-17,2003-04-11,2003-05-16,40.399221989021754,-79.98251030372404,Carrick,4,29,4-12,3,4,Southern,Schenley
426867,0060P00053000000,"STRATA WAY, PITTSBURGH, PA 15210",0060P00053,946,1988-07-08,1988-07-08,2003-04-11,2003-05-16,40.39638193187943,-79.99370344022483,Carrick,4,29,4-23,3,4,Southern,Schenley
426868,0032N00326000000,"LAUGHLIN AVE, PITTSBURGH, PA 15210",0032N00326,835,1992-02-11,1992-02-11,2003-04-11,2003-05-16,40.404596472431685,-79.97951615799577,Carrick,4,29,4-12,3,4,Southern,Schenley
426869,0059J00004000000,"SPRUCEWOOD ST, PITTSBURGH, PA 15210",0059J00004,708,1987-01-23,1987-01-23,2003-04-11,2003-05-16,40.399201397808255,-79.98263271685148,Carrick,4,29,4-12,3,4,Southern,Schenley
426870,0060J00148000000,"NOBLES LN, PITTSBURGH, PA 15210",0060J00148,923,2001-04-10,2001-04-10,2003-04-11,2003-05-16,40.39812640608174,-79.99785744542058,Carrick,4,29,4-23,3,4,Southern,Schenley
426871,0019D00152000000,"108 STEUBEN ST, PITTSBURGH, PA 15220",0019D00152,1413,1985-03-27,1985-03-27,2003-04-11,2003-05-16,40.44289030460748,-80.03289341427417,Elliott,2,20,1-17,6,5,Northern,Emerald
426872,0020G00001000000,"221 GEORGE ST, PITTSBURGH, PA 15220",0020G00001,5420,1995-06-23,1995-06-23,2003-04-11,2003-05-16,40.4502701636205,-80.04083630023025,Elliott,2,20,1-17,6,5,Northern,Emerald
426873,0020M00079000000,"916 ELKTON ST, PITTSBURGH, PA 15220",0020M00079,5186,1993-02-10,1993-02-10,2003-04-11,2003-05-16,40.446499248127594,-80.0353636861137,Elliott,2,20,1-17,6,5,Northern,Emerald
426874,0174F00144000000,"7201 MONTICELLO ST, PITTSBURGH, PA 15208",0174F00144,0,1996-09-16,1996-09-16,2003-04-11,2003-05-16,40.45967921511243,-79.89527511209079,Homewood North,9,13,3-17,5,2,Eastern,Highland
426875,0125S00073000000,"7044 HAMILTON AVE, PITTSBURGH, PA 15208",0125S00073,3035,1994-11-03,1994-11-03,2003-04-11,2003-05-16,40.45503350810336,-79.90046833191289,Homewood South,9,13,3-17,5,2,Eastern,Frick
426876,0115H00305000000,"66 SEMICIR ST, PITTSBURGH, PA 15214",0115H00305,5739,1996-01-08,1996-01-08,2003-04-11,2003-05-16,40.4874202852915,-80.01928705546113,Perry North,1,26,1-15,1,1,Northern,Riverview
426877,0077B00195000000,"124 WATSON BLVD, PITTSBURGH, PA 15214",0077B00195,5544,1992-11-19,1992-11-19,2003-04-11,2003-05-16,40.480984308387214,-80.01006201237804,Perry North,1,26,1-15,1,1,Northern,Riverview
426878,0021N00274000000,"STAFFORD ST, PITTSBURGH, PA 15204",0021N00274,1420,1983-02-28,1983-02-28,2003-04-11,2003-05-16,40.45492660363157,-80.0484870230552,Sheraden,2,20,1-16,6,5,Northern,Emerald
426879,0042M00070000000,"3007 GLEN MAWR AVE, PITTSBURGH, PA 15204",0042M00070,1081,1993-07-30,1993-07-30,2003-04-11,2003-05-16,40.456836591357714,-80.05313574388462,Sheraden,2,20,1-16,6,5,Northern,Emerald
426880,0042D00325000000,"JOSLYN ST, PITTSBURGH, PA 15204",0042D00325,1269,1991-07-12,1991-07-12,2003-04-11,2003-05-16,40.46048801398253,-80.05312032957957,Sheraden,2,20,1-16,6,5,Northern,Emerald
426881,0021P00007000000,"2519 MERWYN AVE, PITTSBURGH, PA 15204",0021P00007,1180,1991-03-20,1991-03-20,2003-04-11,2003-05-16,40.45343990967048,-80.04526159428158,Sheraden,2,20,1-16,6,5,Northern,Emerald
426882,0042C00018000000,"STADIUM ST, PITTSBURGH, PA 15204",0042C00018,1314,1995-12-18,1995-12-18,2003-04-11,2003-05-16,40.46007695808601,-80.05644552195862,Sheraden,2,20,1-16,6,5,Northern,Emerald
426883,0021J00175000000,"2740 GLASGOW ST, PITTSBURGH, PA 15204",0021J00175,1573,1993-04-28,1993-04-28,2003-04-11,2003-05-16,40.45661780445857,-80.04781871863038,Sheraden,2,20,1-16,6,5,Northern,Emerald
426884,0021N00199000000,"2667 STAFFORD ST, PITTSBURGH, PA 15204",0021N00199,1609,1997-02-11,1997-02-11,2003-04-11,2003-05-16,40.45402770080854,-80.04757453922932,Sheraden,2,20,1-16,6,5,Northern,Emerald
426885,0021N00159000000,"MERWYN AVE, PITTSBURGH, PA 15204",0021N00159,849,1993-02-08,1993-02-08,2003-04-11,2003-05-16,40.454255127194486,-80.04898345158878,Sheraden,2,20,1-16,6,5,Northern,Emerald
426886,0042P00196000000,"ADON ST, PITTSBURGH, PA 15204",0042P00196,759,1993-05-13,1993-05-13,2003-04-11,2003-05-16,40.45281925538882,-80.06186730380817,Sheraden,2,20,1-16,6,5,Northern,Emerald
426887,0071M00272000000,"3401 CHARTIERS, PITTSBURGH, PA 15204",0071M00272,912,2001-07-26,2001-07-26,2003-04-11,2003-05-16,40.45631556411782,-80.0669039386929,Sheraden,2,20,1-16,6,5,Northern,Emerald
426888,0042E00038000000,"CRISS ST, PITTSBURGH, PA 15204",0042E00038,564,,,2003-04-11,2003-05-16,40.45868863116822,-80.06520053130224,Sheraden,2,20,1-16,6,5,Northern,Emerald
426889,0021J00176000000,"GLASGOW ST, PITTSBURGH, PA 15204",0021J00176,756,1993-04-28,1993-04-28,2003-04-11,2003-05-16,40.45675018635692,-80.04796805604192,Sheraden,2,20,1-16,6,5,Northern,Emerald
426890,0021N00143000000,"MERWYN AVE, PITTSBURGH, PA 15204",0021N00143,747,2000-11-02,2000-11-02,2003-04-11,2003-05-16,40.453736098938634,-80.04790197894495,Sheraden,2,20,1-16,6,5,Northern,Emerald
426891,0021N00139000000,"MERWYN AVE, PITTSBURGH, PA 15204",0021N00139,831,2000-11-02,2000-11-02,2003-04-11,2003-05-16,40.45367502185276,-80.04758781021356,Sheraden,2,20,1-16,6,5,Northern,Emerald
426892,0042N00197000000,"SUTHERLAND ST, PITTSBURGH, PA 15204",0042N00197,890,2000-02-11,2000-02-11,2003-04-11,2003-05-16,40.45371135299994,-80.06218828557473,Sheraden,2,20,1-16,6,5,Northern,Emerald
426893,0042D00319000000,"11 JOSLYN ST, PITTSBURGH, PA 15204",0042D00319,1363,1993-02-10,1993-02-10,2003-04-11,2003-05-16,40.460380302109215,-80.05348022951688,Sheraden,2,20,1-16,6,5,Northern,Emerald
426894,0021K00102000000,"NAPLES AVE, PITTSBURGH, PA 15204",0021K00102,962,2002-12-09,2002-12-09,2003-04-11,2003-05-16,40.45550418698161,-80.04526043758237,Sheraden,2,20,1-16,6,5,Northern,Emerald
426895,0019R00132000000,"GREENTREE RD, PITTSBURGH, PA 15220",0019R00132,1653,1981-10-26,1981-10-26,2003-04-11,2003-05-16,40.4341498275568,-80.03707271403493,West End,2,20,1-18,6,5,Northern,Emerald
426896,0019H00196000000,"NOBLESTOWN RD, PITTSBURGH, PA 15220",0019H00196,601,1990-07-13,1990-07-13,2003-04-11,2003-05-16,40.43910283338175,-80.03498471621212,West End,2,20,1-17,6,5,Northern,Emerald
426897,0019H00198000000,"NOBLESTOWN RD, PITTSBURGH, PA 15220",0019H00198,700,1981-10-26,1981-10-26,2003-04-11,2003-05-16,40.43904509372945,-80.03497783078323,West End,2,20,1-17,6,5,Northern,Emerald
426898,0035G00026000000,"1553 BROADWAY AVE, PITTSBURGH, PA 15216",0035G00026,345000,2002-12-02,2014-03-31,2009-05-01,2014-03-10,40.41081773800255,-80.0243761783406,Beechview,4,19,4-28,6,5,Southern,Emerald
426899,0070J00078000000,"504 W PROSPECT AVE, PITTSBURGH, PA 15205",0070J00078,12000,1995-12-29,2006-10-20,2013-10-25,2014-10-25,40.44774832590546,-80.08136985612363,Fairywood,2,28,1-16,6,5,Northern,Emerald
426900,0055M00206000000,"FRAYNE ST, PITTSBURGH, PA 15207",0055M00206,200,1993-06-22,1993-06-22,2008-06-27,2014-10-27,40.41634057493789,-79.93630845669061,Hazelwood,5,15,2-12,4,3,Eastern,Frick
426901,0083M00208000A00,"8 EMANS WAY, PITTSBURGH, PA 15206",0083M00208A,2773,2002-11-22,2006-06-29,2007-05-11,2014-12-03,40.46590021650579,-79.91699943496731,Larimer,9,12,3-10,5,2,Eastern,Highland
426902,0124F00126000000,"47 ORPHAN ST, PITTSBURGH, PA 15206",0124F00126,1,2002-03-01,2014-02-05,,2014-10-01,40.4685862629257,-79.91029725130436,Larimer,9,12,3-12,5,2,Eastern,Highland
426903,0121F00086000A00,"6910 BAKER ST, PITTSBURGH, PA 15206",0121F00086A,1,2002-02-21,2013-10-29,,2014-10-20,40.48841762730268,-79.92508556743198,Morningside,7,10,3-7,5,2,Central,Highland
426904,0128N00026000000,"FERNWALD RD, PITTSBURGH, PA 15217",0128N00026,1,2002-06-20,2014-08-29,,2014-11-01,40.42401224807736,-79.91392016575577,Squirrel Hill South,5,14,2-20,4,3,Eastern,Frick
426905,0025P00087000000,"2602 BRERETON ST, PITTSBURGH, PA 15219",0025P00087,1,2002-02-22,2013-11-13,,2014-01-02,40.45338067927239,-79.97506643967778,Strip District,7,2,2-6,2,6,Central,Highland
426906,0030N00005000000,"2942 AZUL ST, PITTSBURGH, PA 15210",0030N00005,1750,2000-12-28,2005-06-22,2014-10-24,2014-10-24,40.416268595323565,-79.96584794406537,Arlington,3,16,4-8,3,4,Southern,Schenley
426907,0022B00025000000,"SUCCESS ST, PITTSBURGH, PA 15212",0022B00025,0,2000-03-30,2000-03-30,2014-10-24,2014-10-24,40.46219172637532,-80.0272977084996,California-Kirkbride,6,21,1-9,1,1,Northern,Riverview
426908,0022B00021000000,"SUCCESS ST, PITTSBURGH, PA 15212",0022B00021,0,1997-02-06,2013-04-30,2014-10-24,2014-10-24,40.46215505984889,-80.02750800819793,California-Kirkbride,6,21,1-9,1,1,Northern,Riverview
426909,0023G00076000000," LORAINE ST, PITTSBURGH, PA 15212",0023G00076,13400,1996-09-30,1996-09-30,2014-10-24,2014-10-24,40.45812544323655,-80.00620598228046,Central Northside,6,25,1-6,1,1,Northern,Riverview
426910,0020K00005000000,"1230 CRUCIBLE ST, PITTSBURGH, PA 15220",0020K00005,0,2001-03-12,2001-03-12,2014-10-24,2014-10-24,40.44587746952044,-80.04501560894725,Crafton Heights,2,20,1-17,6,5,Northern,Emerald
426911,0009M00196000000,"23 MONACA PL, PITTSBURGH, PA 15219",0009M00196,0,1997-07-21,1997-07-21,2014-10-24,2014-10-24,40.446330554390315,-79.98454412072194,Crawford-Roberts,6,3,2-1,2,3,Central,Schenley
426912,0009M00250000000,"806 CASSATT ST, PITTSBURGH, PA 15219",0009M00250,0,1996-04-15,1996-04-15,2014-10-24,2014-10-24,40.44571480454693,-79.98497673683518,Crawford-Roberts,6,3,2-1,2,3,Central,Schenley
426913,0009S00230000000,"1818 WEBSTER AVE, PITTSBURGH, PA 15219",0009S00230,5500,2000-05-08,2000-05-08,2014-10-24,2014-10-24,40.44457737510928,-79.98406619710855,Crawford-Roberts,6,3,2-1,2,3,Central,Schenley
426914,0009M00205000000,"3 MONACA PL, PITTSBURGH, PA 15219",0009M00205,0,1978-08-04,1978-08-04,2014-10-24,2014-10-24,40.446034740649246,-79.98502112023172,Crawford-Roberts,6,3,2-1,2,3,Central,Schenley
426915,0011A00213000000,"280 WICK ST, PITTSBURGH, PA 15219",0011A00213,0,1987-02-24,1987-02-24,2014-10-24,2014-10-24,40.44102145441046,-79.98021616167952,Crawford-Roberts,6,3,2-1,2,3,Central,Schenley
426916,0009M00096000000,"1713 CLIFF ST, PITTSBURGH, PA 15219",0009M00096,10100,2001-05-29,2010-02-05,2014-10-24,2014-10-24,40.44609959268012,-79.98653585019626,Crawford-Roberts,6,3,2-1,2,3,Central,Schenley
426917,0011F00047000000,"2023 COLWELL ST, PITTSBURGH, PA 15219",0011F00047,0,1984-04-27,1984-04-27,2014-10-24,2014-10-24,40.43908847032394,-79.9765819299,Crawford-Roberts,6,5,2-1,2,3,Central,Schenley
426918,0005C00212000000,"VIRGINIA AVE, PITTSBURGH, PA 15211",0005C00212,1,1994-02-10,1994-02-10,2014-10-24,2014-10-24,40.4326705928364,-80.0231623775639,Duquesne Heights,2,19,4-1,3,5,Southern,Emerald
426919,0005C00208000000,"SWEETBRIAR ST, PITTSBURGH, PA 15211",0005C00208,1,1994-02-10,1994-02-10,2014-10-24,2014-10-24,40.4329200487293,-80.02310603715712,Duquesne Heights,2,19,4-1,3,5,Southern,Emerald
426920,0005C00210000000,"SWEETBRIAR ST, PITTSBURGH, PA 15211",0005C00210,1,1994-02-10,1994-02-10,2014-10-24,2014-10-24,40.43277944465846,-80.02313636420288,Duquesne Heights,2,19,4-1,3,5,Southern,Emerald
426921,0023H00126000000,"COMPROMISE ST, PITTSBURGH, PA 15212",0023H00126,300,2001-01-19,2001-01-19,2014-10-24,2014-10-24,40.45928008630358,-80.0008450478522,East Allegheny,1,24,1-10,1,1,Northern,Riverview
426922,0023H00128000000,"1500 COMPROMISE ST, PITTSBURGH, PA 15212",0023H00128,0,,,2014-10-24,2014-10-24,40.4593998067057,-80.00088352914457,East Allegheny,1,24,1-10,1,1,Northern,Riverview
426923,0067K00153000000,"912 BELL AVE, PITTSBURGH, PA 15106",0067K00153,29900,2000-11-28,2005-08-15,2014-10-24,2014-10-24,40.41681054861637,-80.07501053588457,East Carnegie,2,28,1-19,6,5,Northern,Emerald
426924,0020L00205000000,"1017 MARENA AVE, PITTSBURGH, PA 15220",0020L00205,0,2002-05-17,2002-05-17,2014-10-24,2014-10-24,40.44635138865823,-80.03835255617793,Elliott,2,20,1-17,6,5,Northern,Emerald
426925,0023H00134000000,"1512 COMPROMISE ST, PITTSBURGH, PA 15212",0023H00134,4900,1998-08-19,1998-08-19,2014-10-24,2014-10-24,40.45982417216892,-80.00074999522896,Fineview,1,24,1-10,1,1,Northern,Riverview
426926,0046P00390000000,"102 MCNAUGHER ST, PITTSBURGH, PA 15214",0046P00390,35411,1988-03-01,1988-03-01,2014-10-24,2014-10-24,40.46476576210996,-80.00830456003914,Fineview,6,25,1-10,1,1,Northern,Riverview
426927,0050G00236000000,"5155 HILLCREST ST, PITTSBURGH, PA 15224",0050G00236,18500,2002-02-18,2008-01-30,2014-10-24,2014-10-24,40.468701649790646,-79.94020122409697,Garfield,9,10,3-4,5,2,Central,Highland
426928,0050G00229000000,"5165 HILLCREST ST, PITTSBURGH, PA 15224",0050G00229,300,1996-08-30,1996-08-30,2014-10-24,2014-10-24,40.468628416298806,-79.9396846725153,Garfield,9,10,3-4,5,2,Central,Highland
426929,0050H00059000000,"318 N GRAHAM ST, PITTSBURGH, PA 15206",0050H00059,0,2000-02-10,2000-02-10,2014-10-24,2014-10-24,40.46736482878293,-79.93344873826592,Garfield,9,11,3-4,5,2,Central,Highland
426930,0174F00046000A00,"7245 HERMITAGE ST, PITTSBURGH, PA 15208",0174F00046A,1400,1990-04-30,1990-04-30,2014-10-24,2014-10-24,40.45995083831214,-79.89322676636611,Homewood North,9,13,3-17,5,2,Eastern,Highland
426931,0174E00229000000,"7211 IDLEWILD ST, PITTSBURGH, PA 15208",0174E00229,0,1994-05-04,2006-07-26,2014-10-24,2014-10-24,40.45823556917007,-79.89536642699889,Homewood North,9,13,3-17,5,2,Eastern,Highland
426932,0175G00067000000,"7847 SUSQUEHANNA ST, PITTSBURGH, PA 15208",0175G00067,0,2002-11-19,2012-10-01,2014-10-24,2014-10-24,40.44953893536148,-79.88743068645688,Homewood South,9,13,3-17,5,2,Eastern,Frick
426933,0175H00005000000,"7915 MADIERA ST, PITTSBURGH, PA 15221",0175H00005,5000,1994-11-29,1994-11-29,2014-10-24,2014-10-24,40.4484419894014,-79.88686818683628,Homewood South,9,13,3-17,5,2,Eastern,Frick
426934,0174R00191000A00,"708 DURANGO WAY, PITTSBURGH, PA 15208",0174R00191A,0,,,2014-10-24,2014-10-24,40.45409709744435,-79.88912368796046,Homewood South,9,13,3-17,5,2,Eastern,Frick
426935,0175H00007000000,"MADIERA ST, PITTSBURGH, PA 15221",0175H00007,2000,1994-12-02,1994-12-02,2014-10-24,2014-10-24,40.44840359014287,-79.88675105654151,Homewood South,9,13,3-17,5,2,Eastern,Frick
426936,0174P00039000000,"570 PANKE AVE, PITTSBURGH, PA 15208",0174P00039,1000,2001-06-19,2011-02-01,2014-10-24,2014-10-24,40.453271478698234,-79.89342658327686,Homewood South,9,13,3-17,5,2,Eastern,Frick
426937,0134L00157000000,"815 MOONEY RD, PITTSBURGH, PA 15207",0134L00157,0,,2011-07-21,2014-10-24,2014-10-24,40.37795954742317,-79.92096877100309,Lincoln Place,5,31,4-20,4,3,Eastern,Frick
426938,0172N00019000000,"LEMINGTON AVE, PITTSBURGH, PA 15206",0172N00019,1,2002-02-28,2005-02-28,2014-10-24,2014-10-24,40.47261466871935,-79.8988285253074,Lincoln-Lemington-Belmar,9,12,3-18,5,2,Eastern,Highland
426939,0172N00023000000,"LEMINGTON AVE, PITTSBURGH, PA 15206",0172N00023,1,1995-03-06,2005-03-23,2014-10-24,2014-10-24,40.47276611881249,-79.8989404120156,Lincoln-Lemington-Belmar,9,12,3-18,5,2,Eastern,Highland
426940,0173E00180000000,"1360 POINTVIEW ST, PITTSBURGH, PA 15206",0173E00180,8100,2001-06-08,2001-06-08,2014-10-24,2014-10-24,40.46813163427014,-79.89794844385837,Lincoln-Lemington-Belmar,9,12,3-15,5,2,Eastern,Highland
426941,0173E00179000000,"1358 POINTVIEW ST, PITTSBURGH, PA 15206",0173E00179,0,2001-07-27,2006-09-05,2014-10-24,2014-10-24,40.46807077345089,-79.89792221744828,Lincoln-Lemington-Belmar,9,12,3-15,5,2,Eastern,Highland
426942,0022F00136000000,"1328 WARNER ST, PITTSBURGH, PA 15233",0022F00136,0,1996-03-07,1996-03-07,2014-10-24,2014-10-24,40.45836168386639,-80.02710271753786,Manchester,6,21,1-8,1,1,Northern,Riverview
426943,0022F00233000000,"1321 WARNER ST, PITTSBURGH, PA 15233",0022F00233,750,2000-04-14,2007-12-04,2014-10-24,2014-10-24,40.458173724515206,-80.02685337326477,Manchester,6,21,1-8,1,1,Northern,Riverview
426944,0045N00310000000,"2344 CALIFORNIA AVE, PITTSBURGH, PA 15212",0045N00310,1,1991-11-25,1991-11-25,2014-10-24,2014-10-24,40.463627207906576,-80.03164998765422,Marshall-Shadeland,1,27,1-9,1,1,Northern,Riverview
426945,0045N00313000000,"2348 CALIFORNIA AVE, PITTSBURGH, PA 15212",0045N00313,1,1997-09-25,1997-09-25,2014-10-24,2014-10-24,40.46375404789724,-80.03172733156394,Marshall-Shadeland,1,27,1-9,1,1,Northern,Riverview
426946,0010K00152000000,"635 KIRKPATRICK ST, PITTSBURGH, PA 15219",0010K00152,500,2000-08-31,2005-09-01,2014-10-24,2014-10-24,40.44672408112854,-79.97763566717933,Middle Hill,6,5,2-1,2,3,Central,Schenley
426947,0010L00336000000,"2506 HALLETT ST, PITTSBURGH, PA 15219",0010L00336,1,2002-03-08,2007-03-24,2014-10-24,2014-10-24,40.4469945094948,-79.97030708814519,Middle Hill,6,5,2-5,2,3,Central,Schenley
426948,0010F00137000000,"2256 BEDFORD AVE, PITTSBURGH, PA 15219",0010F00137,1258,1992-10-19,1992-10-19,2014-10-24,2014-10-24,40.44882836573096,-79.97651842341365,Middle Hill,6,5,2-5,2,3,Central,Schenley
426949,0010F00001000000,"30 SOMERS ST, PITTSBURGH, PA 15219",0010F00001,4000,2002-03-11,2005-02-07,2014-10-24,2014-10-24,40.448454571747526,-79.97478201666284,Middle Hill,6,5,2-5,2,3,Central,Schenley
426950,0010K00054000000,"2168 WYLIE AVE, PITTSBURGH, PA 15219",0010K00054,20000,2002-12-16,2012-08-08,2014-10-24,2014-10-24,40.44565542850869,-79.97696406447281,Middle Hill,6,5,2-1,2,3,Central,Schenley
426951,0010F00147000000,"2232 BEDFORD AVE, PITTSBURGH, PA 15219",0010F00147,1409,2002-03-05,2005-09-01,2014-10-24,2014-10-24,40.448552382104936,-79.97706031396821,Middle Hill,6,5,2-5,2,3,Central,Schenley
426952,0010F00144000A00,"2237 BLOOMER WAY, PITTSBURGH, PA 15219",0010F00144A,2870,2000-11-20,2005-12-30,2014-10-24,2014-10-24,40.44848109390713,-79.97679881315187,Middle Hill,6,5,2-5,2,3,Central,Schenley
426953,0010K00146000000,"624 KIRKPATRICK ST, PITTSBURGH, PA 15219",0010K00146,0,2002-09-18,2013-11-01,2014-10-24,2014-10-24,40.44641745415632,-79.97752534097769,Middle Hill,6,5,2-1,2,3,Central,Schenley
426954,0010K00123000A00,"612 ELMORE ST, PITTSBURGH, PA 15219",0010K00123A,1,2002-07-22,2011-04-04,2014-10-24,2014-10-24,40.44608824901702,-79.97801291550891,Middle Hill,6,5,2-1,2,3,Central,Schenley
426955,0010L00337000000,"2504 HALLETT ST, PITTSBURGH, PA 15219",0010L00337,11105,2002-10-15,2003-05-29,2014-10-24,2014-10-24,40.44696531633101,-79.97038841593874,Middle Hill,6,5,2-5,2,3,Central,Schenley
426956,0004P00045000000,"454 NORTON ST, PITTSBURGH, PA 15211",0004P00045,31250,2002-04-05,2007-02-05,2014-10-24,2014-10-24,40.42517860659055,-80.01103707396376,Mount Washington,2,19,4-27,3,5,Southern,Emerald
426957,0077F00278000000,"329 BOTHWELL ST, PITTSBURGH, PA 15214",0077F00278,10000,1993-04-27,1993-04-27,2014-10-24,2014-10-24,40.477323713331856,-80.0091967807609,Perry North,1,26,1-15,1,1,Northern,Riverview
426958,0046K00161000000,"2125 FEDERAL ST EXT, PITTSBURGH, PA 15214",0046K00161,8500,2001-11-05,2004-09-23,2014-10-24,2014-10-24,40.46499886680376,-80.01032956386403,Perry South,6,25,1-10,1,1,Northern,Riverview
426959,0046K00105000000,"120 LAFAYETTE AVE, PITTSBURGH, PA 15214",0046K00105,8500,2002-02-19,2003-02-06,2014-10-24,2014-10-24,40.464944569276575,-80.01061615111254,Perry South,6,25,1-10,1,1,Northern,Riverview
426960,0046E00210000000,"2422 WILSON AVE, PITTSBURGH, PA 15214",0046E00210,0,2000-02-17,2006-12-11,2014-10-24,2014-10-24,40.46801234762304,-80.01339008840773,Perry South,6,26,1-12,1,1,Northern,Riverview
426961,0046J00341000000,"WILSON AVE, PITTSBURGH, PA 15214",0046J00341,0,2002-12-12,2002-12-12,2014-10-24,2014-10-24,40.46515936428976,-80.01248798813178,Perry South,6,26,1-12,1,1,Northern,Riverview
426962,0042M00182000000,"2911 MERWYN AVE, PITTSBURGH, PA 15204",0042M00182,0,1997-09-10,1997-09-10,2014-10-24,2014-10-24,40.45576144141685,-80.05099680630465,Sheraden,2,20,1-16,6,5,Northern,Emerald
426963,0014D00286000000,"2523 S 18TH ST EXT, PITTSBURGH, PA 15210",0014D00286,2300,1997-11-04,1997-11-04,2014-10-24,2014-10-24,40.421197900585184,-79.9845328043288,South Side Slopes,3,17,4-6,3,4,Southern,Schenley
426964,0047C00249000000,"31 SCHUBERT ST, PITTSBURGH, PA 15212",0047C00249,10000,1999-02-10,1999-02-10,2014-10-24,2014-10-24,40.47116413056085,-79.98772751638779,Spring Garden,1,26,1-11,1,1,Northern,Riverview
426965,0047G00225000000,"BOROUGH ST, PITTSBURGH, PA 15212",0047G00225,21000,1983-03-31,1983-03-31,2014-10-24,2014-10-24,40.468236095696575,-79.98692604378998,Spring Garden,1,26,1-11,1,1,Northern,Riverview
426966,0047R00133000000,"1452 FIRTH ST, PITTSBURGH, PA 15212",0047R00133,1,2000-02-04,2012-10-23,2014-10-24,2014-10-24,40.46360243122584,-79.98770981405502,Spring Hill-City View,1,24,1-24,1,1,Northern,Riverview
426967,0047L00200000000,"HETZEL ST, PITTSBURGH, PA 15212",0047L00200,750,1987-06-24,1987-06-24,2014-10-24,2014-10-24,40.4671654270907,-79.98755930179593,Spring Hill-City View,1,26,1-11,1,1,Northern,Riverview
426968,0032G00245000000,"943 HENGER ST, PITTSBURGH, PA 15210",0032G00245,3500,1998-02-10,1998-02-10,2014-10-24,2014-10-24,40.40992384110894,-79.97342547579137,St. Clair,3,16,4-8,3,4,Southern,Schenley
426969,0032G00261000000,"942 KOHNE ST, PITTSBURGH, PA 15210",0032G00261,0,2002-11-04,2006-03-08,2014-10-24,2014-10-24,40.41075057629436,-79.97344773540217,St. Clair,3,16,4-8,3,4,Southern,Schenley
426970,0032F00226000000,"SCHULER ST, PITTSBURGH, PA 15210",0032F00226,0,1983-10-18,1983-10-18,2014-10-24,2014-10-24,40.40978384190147,-79.97677268184839,St. Clair,3,16,4-8,3,4,Southern,Schenley
426971,0032G00279000000,"516 KOHNE ST, PITTSBURGH, PA 15210",0032G00279,12000,2002-02-12,2002-02-12,2014-10-24,2014-10-24,40.410576514563935,-79.97405044724958,St. Clair,3,16,4-8,3,4,Southern,Schenley
426972,0032F00211000000,"807 SCHULER ST, PITTSBURGH, PA 15210",0032F00211,0,,,2014-10-24,2014-10-24,40.409655236878955,-79.97548878935451,St. Clair,3,16,4-8,3,4,Southern,Schenley
426973,0032F00202000000,"SCHULER ST, PITTSBURGH, PA 15210",0032F00202,500,1988-10-26,1988-10-26,2014-10-24,2014-10-24,40.40956439959627,-79.97464303030637,St. Clair,3,16,4-8,3,4,Southern,Schenley
426974,0032F00214000000,"SCHULER ST, PITTSBURGH, PA 15210",0032F00214,0,1985-06-04,1985-06-04,2014-10-24,2014-10-24,40.40967784927432,-79.97570666063415,St. Clair,3,16,4-8,3,4,Southern,Schenley
426975,0032G00289000000,"841 HENGER ST, PITTSBURGH, PA 15210",0032G00289,21000,2001-06-07,2007-01-25,2014-10-24,2014-10-24,40.40995561051837,-79.97427902115525,St. Clair,3,16,4-8,3,4,Southern,Schenley
426976,0032G00074000000,"815 FISHER ST, PITTSBURGH, PA 15210",0032G00074,11405,1999-02-02,1999-02-02,2014-10-24,2014-10-24,40.41140247105295,-79.97443903659398,St. Clair,3,16,4-8,3,4,Southern,Schenley
426977,0032F00165000000,"SCHULER ST, PITTSBURGH, PA 15210",0032F00165,3500,1982-11-30,1982-11-30,2014-10-24,2014-10-24,40.409394423353255,-79.97640459392842,St. Clair,3,16,4-8,3,4,Southern,Schenley
426978,0032F00173000000,"736 SCHULER ST, PITTSBURGH, PA 15210",0032F00173,1,1998-03-30,1998-03-30,2014-10-24,2014-10-24,40.40934855958098,-79.97568662463982,St. Clair,3,16,4-8,3,4,Southern,Schenley
426979,0032F00175000000,"SCHULER ST, PITTSBURGH, PA 15210",0032F00175,1,1998-03-30,1998-03-30,2014-10-24,2014-10-24,40.40932773639298,-79.9755033348155,St. Clair,3,16,4-8,3,4,Southern,Schenley
426980,0032G00248000000,"935 HENGER ST, PITTSBURGH, PA 15210",0032G00248,16000,2002-09-06,2002-09-06,2014-10-24,2014-10-24,40.40995570521049,-79.97374428681294,St. Clair,3,16,4-8,3,4,Southern,Schenley
426981,0032F00212000000,"SCHULER ST, PITTSBURGH, PA 15210",0032F00212,0,1982-09-09,1982-09-09,2014-10-24,2014-10-24,40.40966286617604,-79.97557526506051,St. Clair,3,16,4-8,3,4,Southern,Schenley
426982,0011G00070000000,"14 KIRKPATRICK ST, PITTSBURGH, PA 15219",0011G00070,2000,1987-01-15,1987-01-15,2014-10-24,2014-10-24,40.43840856698465,-79.9729531594642,West Oakland,6,4,2-1,4,3,Central,Schenley
426983,0011G00092000000,"GAZZAM ST, PITTSBURGH, PA 15213",0011G00092,300,1977-03-31,1977-03-31,2014-10-24,2014-10-24,40.43948565737838,-79.97257553827373,West Oakland,6,4,2-1,4,3,Central,Schenley
426984,0011G00136000000,"KIRKPATRICK ST, PITTSBURGH, PA 15219",0011G00136,0,1980-10-20,2014-06-16,2014-10-24,2014-10-24,40.438445919600326,-79.97253316322225,West Oakland,6,4,2-1,4,3,Central,Schenley
426985,0011G00101000000,"GAZZAM ST, PITTSBURGH, PA 15213",0011G00101,0,1981-04-30,1981-04-30,2014-10-24,2014-10-24,40.4391919607976,-79.97221969621806,West Oakland,6,4,2-1,4,3,Central,Schenley
426986,0011G00068000A00,"12 KIRKPATRICK ST, PITTSBURGH, PA 15219",0011G00068A,5000,1993-01-06,1993-01-06,2014-10-24,2014-10-24,40.43829154183591,-79.97291386115639,West Oakland,6,4,2-1,4,3,Central,Schenley
426987,0011G00142000000,"10 ALLEQUIPPA ST, PITTSBURGH, PA 15213",0011G00142,4500,1996-09-10,1996-09-10,2014-10-24,2014-10-24,40.43879833858024,-79.97223552913299,West Oakland,6,4,2-1,4,3,Central,Schenley
426988,0011G00135000000,"11 KIRKPATRICK ST, PITTSBURGH, PA 15219",0011G00135,3689,1982-02-02,1982-02-02,2014-10-24,2014-10-24,40.438508088988726,-79.97256798043561,West Oakland,6,4,2-1,4,3,Central,Schenley
426989,0011G00115000000,"GAZZAM ST, PITTSBURGH, PA 15213",0011G00115,0,,,2014-10-24,2014-10-24,40.4389067586448,-79.97242630805123,West Oakland,6,4,2-1,4,3,Central,Schenley
426990,0011G00132000000,"15 KIRKPATRICK ST, PITTSBURGH, PA 15219",0011G00132,0,1987-01-13,1987-01-13,2014-10-24,2014-10-24,40.43871849289173,-79.97260126375926,West Oakland,6,4,2-1,4,3,Central,Schenley
426991,0011G00168000000,"2323 MOHAWK ST, PITTSBURGH, PA 15213",0011G00168,0,1994-03-02,1994-03-02,2014-10-24,2014-10-24,40.438225831306575,-79.97147586771644,West Oakland,6,4,2-1,4,3,Central,Schenley
426992,0054L00236000000,"BEECHWOOD BLVD, PITTSBURGH, PA 15217",0054L00236,100,2002-02-27,2002-02-27,,2000-08-23,40.42787977510275,-79.93797008933795,Greenfield,5,15,2-15,4,3,Eastern,Frick
426993,0128N00103000000,"FERNWALD RD, PITTSBURGH, PA 15217",0128N00103,0,,,,2000-05-12,40.424300435144325,-79.91287115156305,Squirrel Hill South,5,14,2-20,4,3,Eastern,Frick
426994,0075H00012000000,"3515 MCCLURE AVE, PITTSBURGH, PA 15212",0075H00012,1,,,,2000-07-31,40.47928487668327,-80.035806159028,Brighton Heights,1,27,1-14,1,1,Northern,Riverview
426995,0044F00075000000,"DOERR ST, PITTSBURGH, PA 15212",0044F00075,358700,,,,2000-05-10,40.46764586188962,-80.04071187707437,Marshall-Shadeland,1,27,1-14,1,1,Northern,Riverview
426996,0075J00075000000,"W WESTHALL ST, PITTSBURGH, PA 15212",0075J00075,358700,,,,2000-05-10,40.47389071140413,-80.04465907161443,Marshall-Shadeland,1,27,1-14,1,1,Northern,Riverview
426997,0006A00088000000,"S MAIN ST, PITTSBURGH, PA 15220",0006A00088,14000,2000-02-14,2000-02-14,,2000-10-04,40.442480651932094,-80.03158005412693,West End,2,20,1-17,6,5,Northern,Emerald
426998,0014E00170000000,"613 INDUSTRY ST, PITTSBURGH, PA 15210",0014E00170,983,1998-11-24,1998-11-24,2000-09-22,2000-09-22,40.420952459674886,-79.99680316009373,Allentown,3,18,4-21,3,4,Southern,Emerald
426999,0047E00240000000,"ROYAL ST, PITTSBURGH, PA 15212",0047E00240,13000,1979-08-23,1979-08-23,,1979-08-23,40.46872206077656,-79.99692560493581,Spring Hill-City View,1,26,1-11,1,1,Northern,Riverview
427000,0047E00239000000,"1031 ROYAL ST, PITTSBURGH, PA 15212",0047E00239,23000,1979-01-18,1979-01-18,,1979-07-27,40.46878267621587,-79.99686691971898,Spring Hill-City View,1,26,1-11,1,1,Northern,Riverview
427001,0024J00263000000,"SPRING GARDEN AVE, PITTSBURGH, PA 15212",0024J00263,0,1997-06-23,1997-06-23,2022-08-19,2022-08-19,40.4574472195044,-79.99629723402347,East Allegheny,1,23,1-5,1,1,Northern,Northern
427002,0024B00231000000,"1112 HIGH ST, PITTSBURGH, PA 15212",0024B00231,4279,2002-02-18,2016-05-24,2022-08-19,2022-08-19,40.460674691384895,-79.9932132584708,Spring Garden,1,24,1-5,1,1,Northern,Northern
427003,0024C00150000000,"1238 HIGH ST, PITTSBURGH, PA 15212",0024C00150,0,1999-02-26,2004-09-15,2022-08-19,2022-08-19,40.46116425394304,-79.99035277838635,Spring Garden,1,24,1-5,1,1,Northern,Northern
427004,0024B00279000000,"1104 HIGH ST, PITTSBURGH, PA 15212",0024B00279,5000,2002-05-09,2002-05-09,2022-08-19,2022-08-19,40.46044724512728,-79.99345863383154,Spring Garden,1,24,1-5,1,1,Northern,Northern
427005,0024B00265000000,"1134 HIGH ST, PITTSBURGH, PA 15212",0024B00265,1,2002-08-05,2006-02-14,2023-10-27,2022-08-19,40.46058445458254,-79.99229099457216,Spring Garden,1,24,1-5,1,1,Northern,Northern
427006,0046R00196000000,"1930 MEADVILLE ST, PITTSBURGH, PA 15214",0046R00196,0,2002-10-30,2011-09-15,2022-08-19,2022-08-19,40.46340464389797,-80.00574865372297,Fineview,1,25,1-10,1,1,Northern,Northern
427007,0077N00107000000,"KENNEDY AVE, PITTSBURGH, PA 15214",0077N00107,28000,2002-02-26,2002-02-26,2022-08-19,2022-08-19,40.473953570960205,-80.01254544468902,Perry South,1,26,1-23,1,1,Northern,Northern
427008,0077N00105000000,"KENNEDY AVE, PITTSBURGH, PA 15214",0077N00105,21890,2002-02-20,2011-03-21,2022-08-19,2022-08-19,40.473958676179095,-80.01236675304942,Perry South,1,26,1-23,1,1,Northern,Northern
427009,0077P00375000000,"KENNEDY AVE, PITTSBURGH, PA 15214",0077P00375,22000,2002-02-13,2009-01-26,2023-10-27,2022-08-19,40.473982268505054,-80.01157937791248,Perry South,1,26,1-23,1,1,Northern,Northern
427010,0077N00106000000,"KENNEDY AVE, PITTSBURGH, PA 15214",0077N00106,0,1998-06-15,1998-06-15,2022-08-19,2022-08-19,40.47395470323191,-80.01245370114901,Perry South,1,26,1-23,1,1,Northern,Northern
427011,0077P00376000000,"KENNEDY AVE, PITTSBURGH, PA 15214",0077P00376,13000,2002-03-05,2009-07-09,2022-08-19,2022-08-19,40.47397897238236,-80.01167355367238,Perry South,1,26,1-23,1,1,Northern,Northern
427012,0077P00374000000,"KENNEDY AVE, PITTSBURGH, PA 15214",0077P00374,0,2002-07-23,2007-02-08,2023-10-27,2022-08-19,40.47398487857109,-80.01146376182261,Perry South,1,26,1-23,1,1,Northern,Northern
427013,0044H00181000000,"HOLBROOK ST, PITTSBURGH, PA 15212",0044H00181,0,1994-02-10,1994-02-10,2022-08-19,2022-08-19,40.46830301020989,-80.03467770955139,Marshall-Shadeland,1,27,1-14,1,1,Northern,Northern
427014,0006B00004000000,"GREENLEAF ST, PITTSBURGH, PA 15211",0006B00004,5000,2002-03-12,2022-03-03,,2022-03-31,40.44250544027791,-80.02844501657228,Duquesne Heights,2,19,4-1,3,5,Southern,Western
427015,0019H00207000000,"WABASH ST, PITTSBURGH, PA 15220",0019H00207,344000,2002-08-02,2022-03-04,,2022-08-09,40.43841882802502,-80.03488526396723,West End,2,20,1-17,6,5,Northern,Western
427016,0019H00206000000,"WABASH ST, PITTSBURGH, PA 15220",0019H00206,344000,2002-08-02,2022-03-04,,2022-08-09,40.438481911977135,-80.0348893554687,West End,2,20,1-17,6,5,Northern,Western
427017,0019H00197000000,"80 WABASH ST, PITTSBURGH, PA 15220",0019H00197,344000,2002-08-02,2022-03-04,,2022-08-09,40.43874481098359,-80.03480697199142,West End,2,20,1-17,6,5,Northern,Western
427018,0020K00028000000,"1225 CHARTIERS AVE, PITTSBURGH, PA 15220",0020K00028,500,2002-06-28,2004-03-24,2022-08-19,2022-08-19,40.44604620679958,-80.04453240025511,Crafton Heights,2,20,1-17,6,5,Northern,Western
427019,0043S00026000000,"SAGAMORE ST, PITTSBURGH, PA 15204",0043S00026,20000,2002-08-02,2007-04-04,2022-08-19,2022-08-19,40.46328129726211,-80.05344250096562,Esplen,2,20,1-27,6,5,Northern,Western
427020,0043S00088000000,"W CARSON ST, PITTSBURGH, PA 15204",0043S00088,47500,2002-09-04,2005-09-23,2022-08-19,2022-08-19,40.463848172321455,-80.05296531283497,Esplen,2,20,1-27,6,5,Northern,Western
427021,0043S00089000000,"W CARSON ST, PITTSBURGH, PA 15204",0043S00089,0,,,2022-08-19,2022-08-19,40.46379046955303,-80.05292812614982,Esplen,2,20,1-27,6,5,Northern,Western
